~Version Information Block
VERS .                 2.00:  CWLS LOG ASCII STANDARD - VERSION 2.00
WRAP .                   NO:  One line per depth step
~Well Information Block
#MNEM.UNIT        Data Type   Information
#---------- ----------------  -----------
STRT .FT            3001.00:  START DEPTH
STOP .FT            4759.50:  STOP DEPTH
STEP .FT               0.50:  STEP
NULL .              -999.25:  NULL VALUE
COMP .                     :  COMPANY
WELL .               WELL-3:  WELL
FLD  .                     :  FIELD
LOC  .                     :  LOCATION
CTRY .                     :  COUNTRY
STAT .                     :  STATE
CNTY .                     :  COUNTY
SRVC .                     :  SERVICE COMPANY
DATE .                     :  DATE
API  .                     :  API NUMBER
UWI  .                     :  UNIQUE WELL ID
~Curve Information Block
#MNEM.UNIT         API CODE   Curve Description
#---------- ----------------  -----------------
DEPTH.FT                   :  DEPTH CURVE
CALI .IN                   :  
DT   .US/F                 :  
GR   .GAPI                 :  
ILD  .OHMM                 :  
MSFL .OHMM                 :  
NPHI_LS.V/V                  :  
RHOB .G/C3                 :  
~Parameter Information Block
#MNEM.UNIT            Value   Description
#---------- ----------------  -----------
PROJECT.     edit@dataset:  
SET  .                 WIRE:  
~Other Information Block
# 
~A       DEPTH           CALI             DT             GR            ILD           MSFL        NPHI_LS           RHOB 
# ...
       4039.50        11.9350       103.3000        68.8110         1.4860         1.5500       0.299420         2.3280
       4040.00        11.9350       114.4500        73.1140         1.2710         0.9540       0.328980         2.2800
       4040.50        11.9840       118.2000        76.0160         1.0860         0.7890       0.347350         2.2010
       4041.00        11.9840       115.8000        76.8170         0.9550         0.7670       0.356940         2.1600
       4041.50        12.0340       115.4500        76.8170         0.8710         0.7820       0.356140         2.1680
       4042.00        12.0340       115.3500        76.9170         0.8390         0.8120       0.350550         2.1660
       4042.50        12.0830       117.1500        77.8170         0.8320         0.8430       0.353940         2.1680
       4043.00        12.0830       116.3000        76.9170         0.8320         0.8760       0.340160         2.1840
       4043.50        12.1820       116.4500        74.5150         0.8390         0.9100       0.324190         2.1970
       4044.00        12.1820       116.1000        72.1130         0.8390         0.9190       0.316200         2.2080
       4044.50        12.1820       115.6500        73.0140         0.8470         0.9190       0.326580         2.1920
       4045.00        12.1820       116.2000        74.4150         0.8470         0.9010       0.353740         2.1840
       4045.50        12.1820       115.8500        74.5150         0.8470         0.9010       0.365720         2.2000
       4046.00        12.1820       115.6000        74.8150         0.8470         0.9190       0.359330         2.2240
       4046.50        12.1330       114.9500        73.6150         0.8390         0.9360       0.349750         2.2260
       4047.00        12.1330       116.0000        73.9150         0.8390         0.9540       0.364130         2.2180
       4047.50        12.0830       115.9000        74.0150         0.8320         0.9360       0.369320         2.2160
       4048.00        12.0830       116.9500        73.8150         0.8240         0.9270       0.372910         2.2200
       4048.50        12.0340       117.5000        72.8140         0.8090         0.9100       0.360930         2.2240
       4049.00        11.9840       116.3000        74.4150         0.7940         0.9100       0.356540         2.2120
       4049.50        11.9840       117.3500        75.3160         0.7800         0.9190       0.361930         2.2120
       4050.00        12.0830       117.6500        75.4160         0.7660         0.9100       0.356140         2.2080
       4050.50        12.2320       118.2000        75.6160         0.7520         0.8760       0.370520         2.2160
       4051.00        12.4300       120.4000        77.8170         0.7450         0.8510       0.375710         2.2180
       4051.50        12.4300       119.8500        79.0180         0.7380         0.8270       0.356140         2.2080
       4052.00        12.5780       117.8000        80.1190         0.7240         0.8200       0.346550         2.2160
       4052.50        12.7260       118.4500        78.8180         0.7110         0.8040       0.355540         2.2160
       4053.00        12.7760       120.2500        77.4170         0.7050         0.7740       0.362530         2.2180
       4053.50        12.8750       120.6000        79.2180         0.6980         0.7600       0.374510         2.2400
       4054.00        12.7760       124.3000        78.5180         0.6980         0.7520       0.377710         2.2400
       4054.50        12.7260       124.9500        75.4160         0.7050         0.7520       0.382500         2.2340
       4055.00        12.7760       120.7000        74.6150         0.7240         0.7820       0.378500         2.2300
       4055.50        12.8250       120.1500        76.8170         0.7660         0.8270       0.365720         2.2320
       4056.00        12.9240       116.6000        75.2160         0.8170         0.8840       0.363330         2.2280
       4056.50        12.9740       114.9000        74.0150         0.8550         0.9730       0.367320         2.2480
       4057.00        13.0230       108.4500        73.2140         0.8550         1.1990       0.373710         2.2640
       4057.50        13.0730       102.9000        73.6150         0.8470         1.3830       0.376110         2.2880
       4058.00        13.0230       104.1500        74.8150         0.8390         1.3700       0.361730         2.3080
       4058.50        13.0230       107.8500        75.8160         0.8550         1.2700       0.360930         2.3200
       4059.00        12.9740       116.6000        74.6150         0.8870         1.0500       0.349750         2.3200
       4059.50        12.9240       125.1500        71.4130         0.9380         0.9190       0.349750         2.2960
       4060.00        12.9240       126.4000        65.7090         1.0090         0.9190       0.352940         2.2520
       4060.50        12.9740       120.2000        60.9060         1.0960         1.0700       0.337370         2.2440
       4061.00        12.9740       108.4500        60.2050         1.1690         1.6890       0.319390         2.2760
       4061.50        12.8750        94.7000        57.6040         1.2360         2.8230       0.298630         2.3300
       4062.00        12.8250        85.6500        58.4040         1.3060         3.9380       0.285840         2.3600
       4062.50        12.7760        83.9000        61.6060         1.3800         4.2090       0.280250         2.3960
       4063.00        12.6770        94.9000        65.7090         1.4060         2.9880       0.283850         2.3960
       4063.50        12.5780       105.8000        66.4100         1.3800         1.8570       0.308210         2.3570
       4064.00        12.4790       109.8500        66.0090         1.2470         1.3440       0.331380         2.3040
       4064.50        12.4300       112.2000        66.3100         1.1070         1.1760       0.353140         2.2460
       4065.00        12.4300       113.1000        64.6080         0.9640         1.0700       0.351550         2.2240
       4065.50        12.4300       114.4000        65.3090         0.8870         1.0500       0.351750         2.2280
       4066.00        12.4790       114.6000        67.3100         0.8550         1.0500       0.345350         2.2100
       4066.50        12.4790       114.0000        69.2120         0.8550         1.0500       0.341960         2.2080
       4067.00        12.4790       113.2500        73.6150         0.8630         1.0700       0.333770         2.1930
       4067.50        12.4790       113.1500        74.9150         0.8710         1.0900       0.333770         2.2160
       4068.00        12.5290       112.8000        74.6150         0.8870         1.1110       0.331380         2.2280
       4068.50        12.5780       113.2500        70.4120         0.8950         1.1110       0.334570         2.2240
       4069.00        12.6280       113.6000        69.4120         0.9040         1.1110       0.327380         2.2240
       4069.50        12.6280       113.4500        70.0120         0.9040         1.1110       0.331380         2.2280
       4070.00        12.7260       112.9000        68.5110         0.9040         1.1110       0.328180         2.2160
       4070.50        12.7760       112.9500        67.6100         0.9040         1.1540       0.319390         2.2160
       4071.00        12.8250       111.8000        67.3100         0.8950         1.1650       0.319390         2.2340
       4071.50        12.8750       113.1000        68.2110         0.8950         1.1540       0.313400         2.2320
       4072.00        12.9240       113.8500        70.6120         0.8950         1.1540       0.316200         2.2340
       4072.50        12.9740       113.4000        72.4140         0.8950         1.1110       0.313800         2.2480
