~Version Information Block
VERS .                 2.00:  CWLS LOG ASCII STANDARD - VERSION 2.00
WRAP .                   NO:  One line per depth step
~Well Information Block
#MNEM.UNIT        Data Type   Information
#---------- ----------------  -----------
STRT .FT            3001.00:  START DEPTH
STOP .FT            4759.50:  STOP DEPTH
STEP .FT               0.50:  STEP
NULL .              -999.25:  NULL VALUE
COMP .                     :  COMPANY
WELL .               WELL-3:  WELL
FLD  .                     :  FIELD
LOC  .                     :  LOCATION
CTRY .                     :  COUNTRY
STAT .                     :  STATE
CNTY .                     :  COUNTY
SRVC .                     :  SERVICE COMPANY
DATE .                     :  DATE
API  .                     :  API NUMBER
UWI  .                     :  UNIQUE WELL ID
~Curve Information Block
#MNEM.UNIT         API CODE   Curve Description
#---------- ----------------  -----------------
DEPTH.FT                   :  DEPTH CURVE
CALI .IN                   :  
DT   .US/F                 :  
GR   .GAPI                 :  
ILD  .OHMM                 :  
MSFL .OHMM                 :  
NPHI_LS.V/V                  :  
RHOB .G/C3                 :  
~Parameter Information Block
#MNEM.UNIT            Value   Description
#---------- ----------------  -----------
PROJECT.     edit@dataset:  
SET  .                 WIRE:  
~Other Information Block
# 
~A       DEPTH           CALI             DT             GR            ILD           MSFL        NPHI_LS           RHOB 
# ...
       4173.50        13.9140       118.7000        72.0130         0.7940         0.8270       0.360930         2.2580
       4174.00        13.9140       117.1000        70.0120         0.7660         0.7600       0.364130         2.2320
       4174.50        14.1610       118.1500        73.0140         0.7380         0.7170       0.372910         2.2120
       4175.00        14.2600       121.3500        77.0170         0.7050         0.6970       0.376910         2.1930
       4175.50        14.3090       120.0000        75.4160         0.6790         0.6910       0.382500         2.2000
       4176.00        14.3090       120.5500        74.8150         0.6610         0.7110       0.381700         2.2160
       4176.50        14.3590       120.4000        76.8170         0.6490         0.7110       0.376910         2.2040
       4177.00        14.4580       120.2500        78.6180         0.6370         0.7240       0.376510         2.2000
       4177.50        14.4580       120.6000        80.1190         0.6370         0.7110       0.376910         2.2000
       4178.00        14.3090       122.1500        79.0180         0.6370         0.7040       0.381700         2.1980
       4178.50        14.2100       122.9500        73.7150         0.6430         0.7240       0.372910         2.2130
       4179.00        14.1120       121.2500        73.6150         0.6370         0.7600       0.376910         2.2120
       4179.50        13.9140       121.0500        76.4160         0.6370         0.7970       0.380500         2.2280
       4180.00        13.7650       119.2500        76.4160         0.6370         0.8120       0.386490         2.2400
       4180.50        13.7160       117.1500        76.8170         0.6430         0.8270       0.393280         2.2600
       4181.00        13.6660       119.6500        77.6170         0.6610         0.8120       0.389690         2.2720
       4181.50        13.6660       121.1000        77.0170         0.6860         0.7970       0.379300         2.2720
       4182.00        13.6170       122.2500        73.0140         0.7110         0.7890       0.371320         2.3040
       4182.50        13.4190       119.5000        72.4140         0.7380         0.7970       0.374510         2.2960
       4183.00        13.1220       114.6000        71.2130         0.7590         0.8600       0.376910         2.2800
       4183.50        12.8250       112.1500        66.8100         0.7870         0.9450       0.363330         2.2600
       4184.00        12.7760       108.9500        67.7110         0.8240         0.9910       0.340160         2.2520
       4184.50        12.7260       109.7000        69.8120         0.8790         1.0300       0.336970         2.2480
       4185.00        12.6770       112.3000        72.4140         0.9290         1.0100       0.343360         2.2520
       4185.50        12.6770       112.8500        71.2130         0.9550         1.0300       0.351350         2.2600
       4186.00        12.6770       110.7500        70.0120         0.9730         1.1760       0.343560         2.2640
       4186.50        12.7260       109.9500        68.8110         1.0000         1.2580       0.337970         2.2880
       4187.00        12.8250       111.0500        69.6120         1.0280         1.2940       0.338570         2.2720
       4187.50        12.9740       112.2000        69.2120         1.0470         1.2700       0.346550         2.2720
       4188.00        13.1220       107.6500        69.2120         1.0090         1.1990       0.357740         2.2640
       4188.50        13.4190       104.8000        71.2130         0.9640         1.1540       0.362530         2.2880
       4189.00        13.6660       107.0000        72.0130         0.9200         1.0100       0.352940         2.3080
       4189.50        13.9630       110.6500        76.8170         0.8870         0.9010       0.356140         2.2920
       4190.00        14.0130       118.2000        77.8170         0.8550         0.7450       0.373910         2.2760
       4190.50        13.9140       124.0500        77.7170         0.8090         0.6340       0.393680         2.2480
       4191.00        13.7650       121.4000        81.0200         0.7660         0.5990       0.402470         2.2160
       4191.50        13.8150       118.8000        82.6210         0.7180         0.5880       0.407460         2.1680
       4192.00        13.9140       118.9000        82.0200         0.6920         0.6050       0.397680         2.1400
       4192.50        13.9140       118.7000        79.4180         0.6860         0.6400       0.401670         2.1320
       4193.00        13.8150       117.7500        77.0170         0.6860         0.6780       0.419240         2.1450
       4193.50        13.7160       118.1000        74.8150         0.6980         0.7240       0.424040         2.1560
       4194.00        13.5670       118.1500        74.2150         0.7110         0.7450       0.425630         2.1810
       4194.50        13.4680       119.2500        76.2160         0.7180         0.7310       0.433220         2.1970
       4195.00        13.3700       119.3000        77.9170         0.7240         0.7240       0.414450         2.2240
       4195.50        13.4190       118.7500        80.6190         0.7240         0.7170       0.404070         2.2160
       4196.00        13.6660       119.2500        84.8220         0.7380         0.7310       0.398470         2.2160
       4196.50        13.9140       117.4500        85.6230         0.7380         0.7520       0.382500         2.2250
       4197.00        14.1120       116.4000        85.6230         0.7380         0.7520       0.388090         2.2580
       4197.50        14.1610       117.1000        83.8210         0.7520         0.7450       0.393680         2.2520
       4198.00        14.1120       117.8500        81.7200         0.7520         0.7170       0.379300         2.2480
       4198.50        14.0620       117.7000        83.7210         0.7520         0.7170       0.381700         2.2200
       4199.00        13.9630       117.3000        86.1230         0.7450         0.7240       0.386490         2.2260
       4199.50        13.8640       116.8500        86.6230         0.7380         0.7380       0.383300         2.2500
       4200.00        13.7650       117.5000        83.6210         0.7240         0.7600       0.379300         2.2410
       4200.50        13.6660       117.3000        80.6190         0.7180         0.7670       0.362530         2.2240
       4201.00        13.6170       117.9000        80.0190         0.7110         0.7670       0.368120         2.2320
       4201.50        13.6660       117.8500        80.0190         0.7110         0.7450       0.380100         2.2280
       4202.00        13.6660       119.0500        77.4170         0.7110         0.7310       0.388090         2.2240
       4202.50        13.6170       118.1000        75.8160         0.7050         0.7240       0.384890         2.2440
       4203.00        13.5670       119.3500        75.2160         0.7050         0.7310       0.395280         2.2560
       4203.50        13.5180       118.2000        76.0160         0.7050         0.7380       0.396080         2.2640
       4204.00        13.3700       117.3000        77.6170         0.7110         0.7240       0.405660         2.2640
       4204.50        13.2210       118.8500        77.6170         0.7110         0.7110       0.415250         2.2320
       4205.00        13.1720       118.4500        77.5170         0.7180         0.6910       0.411260         2.2080
       4205.50        13.3700       118.1000        78.4180         0.7180         0.6840       0.412850         2.1840
       4206.00        13.6170       117.9000        80.3190         0.7310         0.6710       0.423240         2.1560
       4206.50        13.8150       118.2000        83.5210         0.7450         0.6780       0.421640         2.1680
