~Version Information Block
VERS .                 2.00:  CWLS LOG ASCII STANDARD - VERSION 2.00
WRAP .                   NO:  One line per depth step
~Well Information Block
#MNEM.UNIT        Data Type   Information
#---------- ----------------  -----------
STRT .FT            3001.00:  START DEPTH
STOP .FT            4759.50:  STOP DEPTH
STEP .FT               0.50:  STEP
NULL .              -999.25:  NULL VALUE
COMP .                     :  COMPANY
WELL .               WELL-3:  WELL
FLD  .                     :  FIELD
LOC  .                     :  LOCATION
CTRY .                     :  COUNTRY
STAT .                     :  STATE
CNTY .                     :  COUNTY
SRVC .                     :  SERVICE COMPANY
DATE .                     :  DATE
API  .                     :  API NUMBER
UWI  .                     :  UNIQUE WELL ID
~Curve Information Block
#MNEM.UNIT         API CODE   Curve Description
#---------- ----------------  -----------------
DEPTH.FT                   :  DEPTH CURVE
CALI .IN                   :  
DT   .US/F                 :  
GR   .GAPI                 :  
ILD  .OHMM                 :  
MSFL .OHMM                 :  
NPHI_LS.V/V                  :  
RHOB .G/C3                 :  
~Parameter Information Block
#MNEM.UNIT            Value   Description
#---------- ----------------  -----------
PROJECT.     edit@dataset:  
SET  .                 WIRE:  
~Other Information Block
# 
~A       DEPTH           CALI             DT             GR            ILD           MSFL        NPHI_LS           RHOB 
# ...
       4274.00        12.9740       107.8000        66.7100         1.0760         1.2940       0.346550         2.2760
       4274.50        13.0230       107.1000        65.7090         1.0760         1.2700       0.351350         2.2680
       4275.00        13.0730       106.9500        65.2090         1.0670         1.2340       0.359330         2.2800
       4275.50        13.0730       107.7000        64.0080         1.0670         1.2110       0.371320         2.2920
       4276.00        13.0230       108.1500        64.0080         1.0280         1.1650       0.378500         2.3120
       4276.50        12.8250       107.5000        63.6080         1.0190         1.1110       0.372910         2.3160
       4277.00        12.7760       108.9000        67.2100         1.0090         1.1110       0.377710         2.2960
       4277.50        12.7760       109.2500        70.4120         0.9910         1.1110       0.368920         2.2800
       4278.00        12.7760       109.6500        71.2130         0.9820         1.0800       0.360130         2.2720
       4278.50        12.7260       110.0000        69.3120         0.9730         1.0700       0.353740         2.2920
       4279.00        12.7760       108.6000        67.2100         0.9550         1.0700       0.368920         2.2960
       4279.50        12.8250       108.6000        68.1110         0.9460         1.0700       0.366520         2.2920
       4280.00        12.9740       108.6000        68.6110         0.9550         1.0800       0.356940         2.2720
       4280.50        13.0230       109.7500        69.8120         0.9550         1.0900       0.351350         2.2640
       4281.00        13.1220       110.9500        68.5110         0.9640         1.0700       0.346550         2.2640
       4281.50        13.1720       112.6000        66.2090         0.9910         1.0100       0.351750         2.2740
       4282.00        13.1720       111.4500        65.6090         1.0000         0.9540       0.365720         2.2720
       4282.50        13.1220       110.5500        68.6110         1.0090         0.9360       0.355340         2.2640
       4283.00        13.0230       109.1000        70.7130         1.0280         0.9540       0.351350         2.2320
       4283.50        13.1720       106.1500        67.6100         1.0470         0.9910       0.337770         2.2160
       4284.00        13.2710       107.0000        66.5100         1.0760         1.0600       0.345350         2.2160
       4284.50        13.2210       107.6500        65.6090         1.1170         1.1110       0.347350         2.2480
       4285.00        13.2210       106.6000        63.4080         1.1480         1.1220       0.357140         2.2720
       4285.50        13.2710       106.6000        64.6080         1.1690         1.1110       0.370920         2.2660
       4286.00        13.2710       106.6000        64.4080         1.1910         1.1110       0.372110         2.2560
       4286.50        13.3700       103.1000        63.0070         1.1690         1.2220       0.359730         2.2720
       4287.00        13.5670       100.4500        61.7060         1.1170         1.3700       0.346550         2.2680
       4287.50        13.8150       100.5000        61.1060         1.0670         1.4230       0.328180         2.2560
       4288.00        14.0620       104.3000        64.4080         1.0000         1.3310       0.338960         2.2460
       4288.50        14.1610       110.7500        67.5100         0.9550         1.0900       0.360130         2.2460
       4289.00        14.1610       114.5000        69.6120         0.9200         0.8840       0.380900         2.2600
       4289.50        14.0620       117.6000        70.8130         0.8550         0.7670       0.389690         2.2040
       4290.00        14.0130       116.5000        72.8140         0.8020         0.7450       0.392080         2.1800
       4290.50        14.0130       116.2000        75.4160         0.7660         0.7600       0.400870         2.1800
       4291.00        14.1610       116.0500        79.0180         0.7380         0.7890       0.396480         2.1800
       4291.50        14.2600       115.7500        79.4180         0.7380         0.7970       0.394480         2.1760
       4292.00        14.3090       116.0500        76.4160         0.7380         0.7890       0.399270         2.1840
       4292.50        14.3090       116.1500        74.4150         0.7520         0.7820       0.389890         2.1880
       4293.00        14.3090       116.8500        75.4160         0.7660         0.7820       0.388890         2.2200
       4293.50        14.2100       116.4000        79.0180         0.7660         0.7820       0.382500         2.2530
       4294.00        14.1120       115.8500        81.0200         0.7800         0.7820       0.387290         2.2320
       4294.50        13.9140       116.6500        84.1220         0.7940         0.7670       0.383300         2.1780
       4295.00        13.7160       116.3000        86.1230         0.7940         0.7740       0.394480         2.1520
       4295.50        13.5180       115.3000        84.8220         0.8020         0.7820       0.411260         2.1320
       4296.00        13.4680       114.0000        84.2220         0.7940         0.7820       0.411260         2.1200
       4296.50        13.6170       115.6000        82.8210         0.8020         0.7890       0.392080         2.1380
       4297.00        13.8150       114.6500        82.0200         0.7940         0.7600       0.392080         2.1520
       4297.50        13.8640       115.5000        80.2190         0.7800         0.7240       0.381700         2.1720
       4298.00        13.7650       115.9500        79.6190         0.7660         0.6840       0.382500         2.1920
       4298.50        13.7160       115.6500        81.3200         0.7520         0.6590       0.391680         2.1640
       4299.00        13.7650       117.1500        80.4190         0.7380         0.6590       0.392880         2.1360
       4299.50        13.7650       117.2000        78.2180         0.7180         0.6840       0.378500         2.1440
       4300.00        13.7160       117.7500        77.6170         0.7110         0.7040       0.381700         2.1600
       4300.50        13.8150       117.7000        80.4190         0.7110         0.7110       0.386490         2.1600
       4301.00        13.7160       118.2000        80.8190         0.7380         0.7110       0.391490         2.1480
       4301.50        13.6170       117.8500        81.0200         0.7800         0.7240       0.394480         2.1780
       4302.00        13.5670       117.4000        79.6190         0.8550         0.7380       0.392880         2.1680
       4302.50        13.5670       113.4000        75.8160         0.9200         0.7820       0.386890         2.1760
       4303.00        13.5180       106.6000        71.2130         0.9910         0.8930       0.373710         2.2160
       4303.50        13.4190       102.6000        65.6090         1.0670         1.1540       0.359730         2.2320
       4304.00        13.3700        99.2000        64.0080         1.1480         1.3570       0.350150         2.2760
       4304.50        13.3700        98.4500        66.2090         1.2590         1.5500       0.349750         2.3690
       4305.00        13.3200       101.2000        66.6100         1.3550         1.6410       0.364530         2.4180
       4305.50        13.2710       101.4500        66.4100         1.3930         1.5070       0.375310         2.3700
       4306.00        13.2710       101.6500        67.8110         1.3550         1.5650       0.376310         2.3440
       4306.50        13.1720       101.4000        68.8110         1.3060         1.5800       0.354540         2.3420
       4307.00        13.0730       102.0000        65.8090         1.2470         1.5800       0.355340         2.3100
