~Version Information Block
VERS .                 2.00:  CWLS LOG ASCII STANDARD - VERSION 2.00
WRAP .                   NO:  One line per depth step
~Well Information Block
#MNEM.UNIT        Data Type   Information
#---------- ----------------  -----------
STRT .FT            3001.00:  START DEPTH
STOP .FT            4759.50:  STOP DEPTH
STEP .FT               0.50:  STEP
NULL .              -999.25:  NULL VALUE
COMP .                     :  COMPANY
WELL .               WELL-3:  WELL
FLD  .                     :  FIELD
LOC  .                     :  LOCATION
CTRY .                     :  COUNTRY
STAT .                     :  STATE
CNTY .                     :  COUNTY
SRVC .                     :  SERVICE COMPANY
DATE .                     :  DATE
API  .                     :  API NUMBER
UWI  .                     :  UNIQUE WELL ID
~Curve Information Block
#MNEM.UNIT         API CODE   Curve Description
#---------- ----------------  -----------------
DEPTH.FT                   :  DEPTH CURVE
CALI .IN                   :  
DT   .US/F                 :  
GR   .GAPI                 :  
ILD  .OHMM                 :  
MSFL .OHMM                 :  
NPHI_LS.V/V                  :  
RHOB .G/C3                 :  
~Parameter Information Block
#MNEM.UNIT            Value   Description
#---------- ----------------  -----------
PROJECT.     edit@dataset:  
SET  .                 WIRE:  
~Other Information Block
# 
~A       DEPTH           CALI             DT             GR            ILD           MSFL        NPHI_LS           RHOB 
# ...
       4743.00        12.4790       101.6000        52.6000         1.2020         1.8930       0.313800         2.2340
       4743.50        12.4300       101.6500        53.3010         1.2130         1.7210       0.337770         2.2160
       4744.00        12.3800       101.3000        52.8000         1.1910         1.3700       0.339360         2.1960
       4744.50        12.3310       101.6000        52.8000         1.1270         1.0500       0.325780         2.1600
       4745.00        12.3310       101.7500        52.8000         1.0380         0.9540       0.318600         2.1540
       4745.50        12.3310       101.4500        51.2990         0.9550         0.9360       0.306610         2.1620
       4746.00        12.3310       101.7500        49.5980         0.9120         0.9360       0.291040         2.1600
       4746.50        12.3310       101.4000        51.6000         0.8870         0.9190       0.289840         2.1680
       4747.00        12.3310       101.5000        52.4000         0.8870         0.9100       0.303420         2.1680
       4747.50        12.3310       101.4000        52.2000         0.8870         0.9100       0.318600         2.1800
       4748.00        12.3310       101.4000        52.4000         0.8870         0.9100       0.331380         2.1680
       4748.50        12.3800       101.5000        53.4010         0.8870         0.9100       0.333770         2.1760
       4749.00        12.3800       101.4000        51.8000         0.9040         0.9190       0.334970         2.1680
       4749.50        12.4300       101.5000        48.8980         0.9200         0.9190       0.340360         2.1520
       4750.00        12.5290       101.5000        47.5970         0.9290         0.9190       0.332170         2.1360
       4750.50        12.6770       101.5000        48.4980         0.9380         0.9270       0.325390         2.1200
       4751.00        12.9240       101.6500        48.8980         0.9380         0.9360       0.324990         2.1040
       4751.50        13.2210       101.6000        50.3990         0.9200         0.9360       0.330580         2.0720
       4752.00        13.7650       101.7500        51.5000         0.9040         0.8600       0.354940         2.0200
       4752.50        14.5070       101.5000        52.5000         0.8950         0.6910       0.392880         1.9960
       4753.00        15.3980       101.7500        52.2000         0.9040         0.5550       0.419240         1.9210
       4753.50        16.1400       101.6500        51.3990         0.9200         0.4590       0.405660         1.8400
       4754.00        16.4360       101.6000        51.2990         0.9120         0.4290       0.397680         1.8200
       4754.50        16.4360       101.3000        49.3980         0.8870         0.4370       0.402470         1.8000
       4755.00        16.1890       101.7500        48.3970         0.8550         0.4370       0.429630         1.8260
       4755.50        15.5960       101.4000        48.4980         0.8470         0.4250       0.441210         1.8400
       4756.00        15.0510       101.4000        50.5990         0.8710         0.3980       0.456790         1.8360
       4756.50        15.0510       101.5000        52.8000         0.9200         0.3980       0.451990         1.8400
       4757.00        15.1010       101.7500        50.4990         0.9380         0.4290       0.424830         1.8720
       4757.50        14.9520       101.7500        49.0980         0.9640         0.4860       0.416050         1.9440
       4758.00        14.8540       101.7500        53.1010         0.9730         0.5390       0.416850         1.9320
       4758.50        14.6060       101.7500        53.3010         0.9550         0.5660       0.410460         1.9200
       4759.00        14.3090       101.7500        52.4000         0.9550         0.6460       0.407660         1.9300
       4759.50        14.1120       101.6500        53.8010         0.9730         0.6650       0.412450         2.0040
