~Version Information Block
VERS .                 2.00:  CWLS LOG ASCII STANDARD - VERSION 2.00
WRAP .                   NO:  One line per depth step
~Well Information Block
#MNEM.UNIT        Data Type   Information
#---------- ----------------  -----------
STRT .FT            3001.00:  START DEPTH
STOP .FT            4759.50:  STOP DEPTH
STEP .FT               0.50:  STEP
NULL .              -999.25:  NULL VALUE
COMP .                     :  COMPANY
WELL .               WELL-3:  WELL
FLD  .                     :  FIELD
LOC  .                     :  LOCATION
CTRY .                     :  COUNTRY
STAT .                     :  STATE
CNTY .                     :  COUNTY
SRVC .                     :  SERVICE COMPANY
DATE .                     :  DATE
API  .                     :  API NUMBER
UWI  .                     :  UNIQUE WELL ID
~Curve Information Block
#MNEM.UNIT         API CODE   Curve Description
#---------- ----------------  -----------------
DEPTH.FT                   :  DEPTH CURVE
CALI .IN                   :  
DT   .US/F                 :  
GR   .GAPI                 :  
ILD  .OHMM                 :  
MSFL .OHMM                 :  
NPHI_LS.V/V                  :  
RHOB .G/C3                 :  
~Parameter Information Block
#MNEM.UNIT            Value   Description
#---------- ----------------  -----------
PROJECT.     edit@dataset:  
SET  .                 WIRE:  
~Other Information Block
# 
~A       DEPTH           CALI             DT             GR            ILD           MSFL        NPHI_LS           RHOB 
# ...
       3470.00        13.6660       128.5000        84.0220         0.8020         0.7520       0.356140         2.1600
       3470.50        13.6660       128.6500        84.4220         0.8020         0.7600       0.364530         2.1620
       3471.00        13.6170       130.0000        84.8220         0.8020         0.7520       0.359330         2.1620
       3471.50        13.6660       130.0000        82.8210         0.8090         0.7380       0.356940         2.1600
       3472.00        13.7650       130.5500        80.0190         0.8240         0.7110       0.366520         2.1520
       3472.50        13.8150       130.8000        77.0170         0.8470         0.6970       0.373710         2.1320
       3473.00        13.5670       130.6000        75.7160         0.8870         0.7040       0.379300         2.1520
       3473.50        13.2210       130.4500        75.0150         0.9460         0.7310       0.372110         2.1520
       3474.00        13.1720       131.4000        70.5120         1.0280         0.7820       0.362530         2.1600
       3474.50        13.2210       126.8000        64.2080         1.0860         0.8350       0.372910         2.1690
       3475.00        13.1720       119.8000        58.6040         1.1480         0.8840       0.368920         2.1700
       3475.50        12.9240       116.2000        51.3990         1.1690         0.9540       0.356940         2.1840
       3476.00        12.6280       112.2000        48.3970         1.1480         0.9910       0.313000         2.1140
       3476.50        12.5290       112.7000        46.1960         1.1070         1.0100       0.314600         2.0800
       3477.00        12.5780       113.2000        45.7960         1.0190         0.9910       0.316200         2.0520
       3477.50        12.5780       111.6000        45.5960         0.9290         0.9190       0.318600         2.0400
       3478.00        12.5780       110.4500        44.3950         0.8550         0.8350       0.327380         2.0370
       3478.50        12.5290       110.2000        43.5940         0.7940         0.7890       0.330580         2.0500
       3479.00        12.5290       110.4000        45.0950         0.7310         0.7310       0.338570         2.0600
       3479.50        12.5290       110.8000        46.6960         0.6920         0.7110       0.333770         2.0560
       3480.00        12.5290       111.1000        46.6960         0.6730         0.7110       0.338570         2.0640
       3480.50        12.4790       112.9500        46.1960         0.6610         0.7110       0.338570         2.0660
       3481.00        12.4300       114.4000        44.1950         0.6610         0.7520       0.324190         2.0520
       3481.50        12.3310       114.8000        44.8950         0.6730         0.8040       0.318200         2.0400
       3482.00        12.2810       114.4000        45.3950         0.6860         0.8430       0.315000         2.0240
       3482.50        12.2810       114.4500        45.2950         0.6860         0.8760       0.317000         2.0210
       3483.00        12.2810       114.5500        46.8960         0.6730         0.8760       0.322790         2.0320
       3483.50        12.3800       115.0000        48.7980         0.6670         0.8930       0.322590         2.0500
       3484.00        12.3800       114.8500        51.1990         0.6730         0.9270       0.312210         2.0560
       3484.50        12.4300       114.8000        52.8000         0.7110         0.9450       0.303420         2.0760
       3485.00        12.4790       113.0500        55.7020         0.7660         0.9270       0.299420         2.0800
       3485.50        12.5290       112.1500        62.8070         0.8170         0.8930       0.306610         2.1000
       3486.00        12.6770       114.6000        70.0120         0.8870         0.8930       0.321990         2.1440
       3486.50        12.8750       114.8000        75.2160         0.9640         0.9730       0.338570         2.1760
       3487.00        13.0730       118.8500        75.9160         1.0760         1.0300       0.362530         2.1960
       3487.50        13.1220       124.6000        77.3170         1.2470         1.0800       0.389690         2.2160
       3488.00        12.9740       122.6500        75.3160         1.4320         1.0700       0.389690         2.1930
       3488.50        12.7760       119.2500        69.2120         1.5140         1.0300       0.381700         2.1680
       3489.00        12.7260       111.4000        63.2070         1.5560         1.0300       0.372110         2.1480
       3489.50        12.6280       102.7000        57.6040         1.5700         1.0500       0.361330         2.1520
       3490.00        12.4790        99.6500        56.0030         1.5560         1.0010       0.341760         2.1460
       3490.50        12.3800       101.7500        55.6020         1.5420         0.9270       0.336970         2.1520
       3491.00        12.2810       105.2000        57.7040         1.5140         0.9100       0.325780         2.1400
       3491.50        12.2320       104.8500        60.2050         1.4450         0.9100       0.329780         2.1600
       3492.00        12.1820       105.8000        61.2060         1.3800         0.9730       0.340160         2.2080
       3492.50        12.1820       106.8000        61.9070         1.3180         1.0600       0.347350         2.1880
       3493.00        12.1820       107.6500        62.4070         1.2470         1.0800       0.338570         2.1840
       3493.50        12.1820       108.3000        61.9070         1.1800         1.0800       0.325780         2.1760
       3494.00        12.1820       109.0000        64.0080         1.1270         1.0700       0.319390         2.1600
       3494.50        12.1820       109.6500        63.4080         1.0670         1.0500       0.322990         2.1440
       3495.00        12.1820       110.4000        60.0050         0.9910         1.0100       0.336970         2.1360
       3495.50        12.1820       111.2000        58.9050         0.9290         0.9910       0.343360         2.1480
       3496.00        12.1820       112.1000        59.4050         0.8870         0.9540       0.336970         2.1460
       3496.50        12.2320       112.2000        58.2040         0.8550         0.9270       0.324190         2.1440
       3497.00        12.2320       112.9000        56.0030         0.8320         0.8600       0.321790         2.1060
       3497.50        12.2320       112.0000        56.1030         0.8240         0.8120       0.319390         2.0920
       3498.00        12.2810       110.2000        56.8030         0.8020         0.7970       0.310010         2.0960
       3498.50        12.3310       110.2000        55.2020         0.7940         0.8270       0.308210         2.1040
       3499.00        12.3800       110.6000        55.3020         0.7800         0.8600       0.309410         2.1200
       3499.50        12.4300       111.0500        55.7020         0.7730         0.8760       0.306010         2.1300
       3500.00        12.4790       111.3000        57.2030         0.7660         0.8760       0.308210         2.1280
       3500.50        12.5290       111.3000        57.9040         0.7660         0.8430       0.308210         2.1120
       3501.00        12.5290       111.3500        56.0030         0.7660         0.8350       0.303420         2.1160
       3501.50        12.5780       110.2500        55.6020         0.7940         0.8270       0.314600         2.0960
       3502.00        12.6280       109.4500        56.6030         0.8240         0.8120       0.313800         2.1000
       3502.50        12.6280       107.7000        56.4030         0.8710         0.8270       0.312600         2.1000
       3503.00        12.6280       105.8000        56.5030         0.9290         0.8510       0.307010         2.1200
