~Version Information Block
VERS .                 2.00:  CWLS LOG ASCII STANDARD - VERSION 2.00
WRAP .                   NO:  One line per depth step
~Well Information Block
#MNEM.UNIT        Data Type   Information
#---------- ----------------  -----------
STRT .FT            3001.00:  START DEPTH
STOP .FT            4759.50:  STOP DEPTH
STEP .FT               0.50:  STEP
NULL .              -999.25:  NULL VALUE
COMP .                     :  COMPANY
WELL .               WELL-3:  WELL
FLD  .                     :  FIELD
LOC  .                     :  LOCATION
CTRY .                     :  COUNTRY
STAT .                     :  STATE
CNTY .                     :  COUNTY
SRVC .                     :  SERVICE COMPANY
DATE .                     :  DATE
API  .                     :  API NUMBER
UWI  .                     :  UNIQUE WELL ID
~Curve Information Block
#MNEM.UNIT         API CODE   Curve Description
#---------- ----------------  -----------------
DEPTH.FT                   :  DEPTH CURVE
CALI .IN                   :  
DT   .US/F                 :  
GR   .GAPI                 :  
ILD  .OHMM                 :  
MSFL .OHMM                 :  
NPHI_LS.V/V                  :  
RHOB .G/C3                 :  
~Parameter Information Block
#MNEM.UNIT            Value   Description
#---------- ----------------  -----------
PROJECT.     edit@dataset:  
SET  .                 WIRE:  
~Other Information Block
# 
~A       DEPTH           CALI             DT             GR            ILD           MSFL        NPHI_LS           RHOB 
# ...
       3939.00        13.0730       121.3500        85.2220         0.8710         0.6710       0.387490         2.3040
       3939.50        13.0230       124.8500        83.8210         0.8240         0.6590       0.385690         2.3050
       3940.00        13.0230       127.0500        81.0200         0.7660         0.6650       0.380100         2.3050
       3940.50        12.8750       131.5000        82.2200         0.7240         0.6650       0.393280         2.2720
       3941.00        12.7260       129.2500        85.2220         0.6860         0.6340       0.395280         2.2640
       3941.50        12.6770       126.4000        86.4230         0.6430         0.5990       0.399470         2.2520
       3942.00        12.5780       125.4500        85.8230         0.6140         0.5660       0.408860         2.2340
       3942.50        12.5290       124.4500        86.4230         0.5920         0.5550       0.423640         2.2520
       3943.00        12.6280       124.4000        84.4220         0.5650         0.5500       0.436820         2.2580
       3943.50        12.8750       126.1500        85.2220         0.5600         0.5500       0.436220         2.2500
       3944.00        13.0730       129.1500        88.0240         0.5700         0.5500       0.418440         2.2600
       3944.50        13.1720       128.6000        85.8230         0.5920         0.5550       0.402470         2.2720
       3945.00        13.2710       127.2000        79.4180         0.6190         0.5600       0.415250         2.2520
       3945.50        13.3700       127.0000        76.0160         0.6670         0.5820       0.415250         2.2600
       3946.00        13.5180       118.0500        72.0130         0.6920         0.6460       0.407260         2.2730
       3946.50        13.6170       108.9500        67.2100         0.7110         0.6840       0.390490         2.2880
       3947.00        13.8150       109.6500        69.6120         0.7240         0.6590       0.378500         2.3120
       3947.50        13.9140       109.8000        76.0160         0.7380         0.6280       0.370520         2.3120
       3948.00        14.0130       114.6000        81.8200         0.7590         0.5710       0.391680         2.2960
       3948.50        14.0130       125.6500        84.0220         0.7660         0.5390       0.423240         2.2580
       3949.00        13.9630       128.0000        81.2200         0.7310         0.5290       0.434420         2.2400
       3949.50        13.9630       126.9000        78.0170         0.6730         0.5050       0.430430         2.2520
       3950.00        13.9140       126.5000        76.8170         0.6490         0.4810       0.434420         2.2320
       3950.50        14.0130       126.4000        72.9140         0.6250         0.4810       0.414450         2.2400
       3951.00        14.1120       126.4000        73.6150         0.6140         0.5090       0.390490         2.2680
       3951.50        14.0620       126.4000        77.0170         0.6190         0.5600       0.391680         2.2920
       3952.00        13.8640       126.9000        79.6190         0.6370         0.6100       0.404070         2.3040
       3952.50        13.6170       125.1000        82.2200         0.6670         0.6220       0.412050         2.2960
       3953.00        13.4680       125.2000        81.8200         0.7110         0.6340       0.415250         2.2920
       3953.50        13.3700       123.7000        78.8180         0.7660         0.6590       0.424830         2.2960
       3954.00        13.3200       114.9000        76.0160         0.8240         0.7110       0.416850         2.2800
       3954.50        13.3700       109.6000        73.2140         0.9120         0.8040       0.396080         2.2960
       3955.00        13.4190       105.2500        71.0130         1.0280         0.8840       0.364930         2.3120
       3955.50        13.5670       102.8000        68.8110         1.1910         0.9540       0.348150         2.3360
       3956.00        13.6660       105.2000        65.8090         1.3300         1.0300       0.354540         2.3600
       3956.50        13.7650       102.4000        64.0080         1.4320         1.1760       0.368920         2.3610
       3957.00        13.5180       100.6500        63.0070         1.4320         1.2940       0.368920         2.3360
       3957.50        13.3700       103.1500        64.0080         1.4060         1.3190       0.360130         2.3440
       3958.00        13.2710       108.6000        65.2090         1.3930         1.2340       0.354540         2.3400
       3958.50        13.2210       112.2500        64.3080         1.3430         1.0800       0.354540         2.3200
       3959.00        13.1220       114.0500        62.2070         1.2590         1.0300       0.363330         2.2880
       3959.50        13.1720       112.4500        61.3060         1.1910         0.9820       0.357740         2.2430
       3960.00        13.2210       111.4000        64.6080         1.1270         0.9270       0.346550         2.2320
       3960.50        13.2710       111.0000        69.8120         1.0960         0.8930       0.353140         2.2520
       3961.00        13.3200       113.4000        71.2130         1.0760         0.8510       0.362730         2.2640
       3961.50        13.4190       112.6500        68.6110         1.0670         0.8510       0.364930         2.2800
       3962.00        13.5180       111.6000        67.2100         1.0470         0.8760       0.362530         2.2960
       3962.50        13.6170       111.0000        65.6090         1.0280         0.8680       0.372110         2.2840
       3963.00        13.6660       109.5000        66.9100         1.0090         0.8430       0.364530         2.2560
       3963.50        13.8150       110.1500        68.2110         0.9910         0.7820       0.356140         2.2520
       3964.00        14.0130       112.8500        66.6100         0.9910         0.6840       0.365720         2.2660
       3964.50        14.2100       116.8500        66.4100         0.9910         0.6050       0.367720         2.2480
       3965.00        14.2100       118.8000        65.6090         0.9910         0.5440       0.367320         2.2240
       3965.50        14.2100       118.1000        65.7090         0.9910         0.5550       0.377310         2.2120
       3966.00        14.0130       115.6500        66.0090         0.9730         0.6220       0.367320         2.2100
       3966.50        13.7650       114.5000        66.1090         0.9640         0.6650       0.360130         2.2020
       3967.00        13.6660       116.6000        66.6100         0.9730         0.6910       0.362930         2.2000
       3967.50        13.5670       116.6000        65.8090         0.9910         0.6970       0.363330         2.1920
       3968.00        13.6660       118.6000        64.6080         1.0090         0.6840       0.356540         2.2080
       3968.50        13.8640       117.6500        61.6060         1.0280         0.6650       0.354540         2.1960
       3969.00        13.9630       113.6000        61.8060         1.0090         0.6520       0.354740         2.2160
       3969.50        13.9630       114.4000        61.2060         0.9910         0.6160       0.356940         2.2420
       3970.00        13.8640       113.6000        64.6080         0.9640         0.6160       0.363730         2.2180
       3970.50        13.8640       118.4000        66.4100         0.9290         0.6100       0.359730         2.2080
       3971.00        13.8640       118.9000        66.8100         0.9200         0.6280       0.359330         2.2090
       3971.50        13.7650       121.2000        66.6100         0.8870         0.6840       0.373710         2.2240
       3972.00        13.7650       120.4000        69.6120         0.8630         0.7170       0.384890         2.2440
