~Version Information Block
VERS .                 2.00:  CWLS LOG ASCII STANDARD - VERSION 2.00
WRAP .                   NO:  One line per depth step
~Well Information Block
#MNEM.UNIT        Data Type   Information
#---------- ----------------  -----------
STRT .FT            3001.00:  START DEPTH
STOP .FT            4759.50:  STOP DEPTH
STEP .FT               0.50:  STEP
NULL .              -999.25:  NULL VALUE
COMP .                     :  COMPANY
WELL .               WELL-3:  WELL
FLD  .                     :  FIELD
LOC  .                     :  LOCATION
CTRY .                     :  COUNTRY
STAT .                     :  STATE
CNTY .                     :  COUNTY
SRVC .                     :  SERVICE COMPANY
DATE .                     :  DATE
API  .                     :  API NUMBER
UWI  .                     :  UNIQUE WELL ID
~Curve Information Block
#MNEM.UNIT         API CODE   Curve Description
#---------- ----------------  -----------------
DEPTH.FT                   :  DEPTH CURVE
CALI .IN                   :  
DT   .US/F                 :  
GR   .GAPI                 :  
ILD  .OHMM                 :  
MSFL .OHMM                 :  
NPHI_LS.V/V                  :  
RHOB .G/C3                 :  
~Parameter Information Block
#MNEM.UNIT            Value   Description
#---------- ----------------  -----------
PROJECT.     edit@dataset:  
SET  .                 WIRE:  
~Other Information Block
# 
~A       DEPTH           CALI             DT             GR            ILD           MSFL        NPHI_LS           RHOB 
# ...
       3570.50        13.4190       116.1500        86.6230         1.0960         0.9820       0.333970         2.2480
       3571.00        13.3700       117.2500        85.4220         1.0860         1.0300       0.342160         2.2570
       3571.50        13.4190       116.5000        85.2220         1.0760         1.0700       0.352940         2.2840
       3572.00        13.3200       117.7500        85.6230         1.0860         1.0700       0.357740         2.2800
       3572.50        13.3200       119.5000        83.7210         1.0860         1.0300       0.363330         2.2560
       3573.00        13.2710       119.7500        81.6200         1.0860         0.9820       0.366520         2.2400
       3573.50        13.2210       119.3500        81.3200         1.0860         0.9540       0.352940         2.2280
       3574.00        13.2210       119.2000        85.0220         1.0860         0.8930       0.364930         2.2240
       3574.50        13.0230       116.7000        85.6230         1.0860         0.8120       0.361730         2.2160
       3575.00        12.8250       115.9500        86.5230         1.0860         0.7110       0.363330         2.2200
       3575.50        12.8250       116.1500        88.0240         1.0860         0.6400       0.361730         2.2000
       3576.00        13.0230       116.2500        84.4220         1.0860         0.6220       0.357140         2.1840
       3576.50        13.2710       118.2500        82.8210         1.0760         0.6460       0.357740         2.1880
       3577.00        13.4190       117.4500        85.4220         1.0670         0.6840       0.354740         2.1880
       3577.50        13.6170       117.8500        85.6230         1.0670         0.7520       0.359530         2.1920
       3578.00        13.8150       119.5500        85.2220         1.0470         0.7740       0.348950         2.2100
       3578.50        13.9140       118.9000        84.0220         1.0470         0.7970       0.351350         2.2340
       3579.00        14.1610       119.0500        82.1200         1.0670         0.8430       0.373710         2.2560
       3579.50        14.5570       119.5000        83.3210         1.0670         0.8040       0.380100         2.2560
       3580.00        14.4580       117.0000        84.0220         1.0470         0.7970       0.387290         2.2400
       3580.50        14.0620       117.7500        85.0220         1.0470         0.7820       0.378500         2.2560
       3581.00        13.7160       118.9000        84.4220         1.0670         0.7820       0.372910         2.2440
       3581.50        13.5670       118.5500        85.0220         1.0860         0.8270       0.380100         2.2440
       3582.00        13.4190       118.8500        84.0220         1.0960         0.8600       0.376910         2.2520
       3582.50        13.1220       116.6500        81.0200         1.0960         0.8930       0.357140         2.2640
       3583.00        12.8750       115.6000        80.2190         1.0960         0.9360       0.350150         2.2490
       3583.50        12.9740       115.4500        80.0190         1.1070         0.9540       0.347350         2.2440
       3584.00        13.0230       116.0000        80.2190         1.1170         0.9730       0.350550         2.2500
       3584.50        13.1220       116.5000        79.8190         1.1170         0.9910       0.368120         2.2580
       3585.00        13.2210       116.9000        81.6200         1.1070         0.9910       0.379700         2.2600
       3585.50        13.2710       116.2000        83.2210         1.0960         0.9820       0.368920         2.2640
       3586.00        13.2710       115.6500        81.6200         1.0860         0.9730       0.353740         2.2440
       3586.50        13.3700       116.3000        83.2210         1.0860         0.9630       0.354540         2.2490
       3587.00        13.5180       117.4500        86.4230         1.0860         0.9540       0.352940         2.2400
       3587.50        13.8150       118.0000        88.0240         1.0760         0.9540       0.347550         2.2340
       3588.00        13.9630       119.2500        90.2260         1.0670         0.9540       0.354940         2.2240
       3588.50        14.1120       120.0000        91.2260         1.0470         0.9450       0.360130         2.2180
       3589.00        14.3090       120.0000        93.2280         1.0280         0.9100       0.362530         2.2280
       3589.50        14.3090       119.5000        92.8270         1.0090         0.8760       0.361730         2.2320
       3590.00        14.1120       118.0000        88.0240         0.9910         0.8680       0.362930         2.2240
       3590.50        13.9140       119.9000        85.8230         0.9910         0.8510       0.360930         2.2260
       3591.00        13.7650       121.7500        84.4220         0.9910         0.8430       0.373710         2.2180
       3591.50        13.5670       120.9500        83.3210         0.9910         0.8270       0.384890         2.2080
       3592.00        13.4680       119.8000        84.4220         0.9910         0.7970       0.389690         2.2000
       3592.50        13.4190       114.8000        82.6210         0.9640         0.7740       0.392080         2.1840
       3593.00        13.3700       109.5000        80.5190         0.9040         0.7670       0.380100         2.1760
       3593.50        13.5180       109.5000        78.6180         0.8390         0.7670       0.364530         2.1800
       3594.00        13.8150       112.0500        79.3180         0.7940         0.7740       0.365720         2.1760
       3594.50        14.0620       119.4000        82.0200         0.7450         0.7170       0.368920         2.1640
       3595.00        14.2100       130.6000        85.2220         0.7110         0.6520       0.381700         2.2000
       3595.50        14.3090       131.5000        88.4250         0.6610         0.6100       0.388090         2.1360
       3596.00        14.3590       130.3000        85.3220         0.6140         0.5660       0.377710         2.0720
       3596.50        14.4080       130.8000        82.2200         0.5810         0.5760       0.388890         2.0680
       3597.00        14.5070       131.3000        78.8180         0.5750         0.5880       0.388890         2.0740
       3597.50        14.5570       132.4500        74.0150         0.5920         0.6100       0.381700         2.0920
       3598.00        14.5070       135.4000        72.4140         0.6310         0.6100       0.383300         2.1060
       3598.50        14.4580       135.4500        70.0120         0.6860         0.6100       0.369920         2.1200
       3599.00        14.2600       130.6500        64.6080         0.7240         0.5760       0.364130         2.1160
       3599.50        13.7650       124.8500        62.0070         0.7800         0.5760       0.362530         2.1040
       3600.00        13.0230       115.8500        63.2070         0.8390         0.6460       0.361730         2.1040
       3600.50        12.3310       110.0500        66.4100         0.9040         0.7670       0.346550         2.1300
       3601.00        12.2320       111.1000        69.6120         0.9730         0.9190       0.343360         2.1540
       3601.50        12.2320       111.4000        72.0130         1.0090         1.0300       0.346550         2.1480
       3602.00        12.2810       111.5000        72.4140         1.0090         1.0300       0.339360         2.1440
       3602.50        12.3310       115.3500        74.1150         0.9550         1.0010       0.338570         2.1280
       3603.00        12.4300       120.1500        77.6170         0.9200         1.0100       0.346550         2.1280
       3603.50        12.5780       123.8500        80.4190         0.8710         0.9630       0.365720         2.1440
