~Version Information Block
VERS .                 2.00:  CWLS LOG ASCII STANDARD - VERSION 2.00
WRAP .                   NO:  One line per depth step
~Well Information Block
#MNEM.UNIT        Data Type   Information
#---------- ----------------  -----------
STRT .FT            3001.00:  START DEPTH
STOP .FT            4759.50:  STOP DEPTH
STEP .FT               0.50:  STEP
NULL .              -999.25:  NULL VALUE
COMP .                     :  COMPANY
WELL .               WELL-3:  WELL
FLD  .                     :  FIELD
LOC  .                     :  LOCATION
CTRY .                     :  COUNTRY
STAT .                     :  STATE
CNTY .                     :  COUNTY
SRVC .                     :  SERVICE COMPANY
DATE .                     :  DATE
API  .                     :  API NUMBER
UWI  .                     :  UNIQUE WELL ID
~Curve Information Block
#MNEM.UNIT         API CODE   Curve Description
#---------- ----------------  -----------------
DEPTH.FT                   :  DEPTH CURVE
CALI .IN                   :  
DT   .US/F                 :  
GR   .GAPI                 :  
ILD  .OHMM                 :  
MSFL .OHMM                 :  
NPHI_LS.V/V                  :  
RHOB .G/C3                 :  
~Parameter Information Block
#MNEM.UNIT            Value   Description
#---------- ----------------  -----------
PROJECT.     edit@dataset:  
SET  .                 WIRE:  
~Other Information Block
# 
~A       DEPTH           CALI             DT             GR            ILD           MSFL        NPHI_LS           RHOB 
# ...
       4642.50        13.4680       108.9500        69.6120         1.0470         1.0800       0.347550         2.2480
       4643.00        13.6170       109.0500        69.6120         1.0380         1.1110       0.316200         2.2720
       4643.50        13.7650       109.8500        70.0120         1.0380         1.1990       0.313800         2.2960
       4644.00        13.5670       108.4000        68.2110         1.0380         1.2110       0.325780         2.3200
       4644.50        13.2710       108.2500        66.8100         1.0470         1.2460       0.328980         2.2880
       4645.00        13.2210       106.2000        67.4100         1.0670         1.3060       0.325780         2.2840
       4645.50        13.2210       105.3000        67.2100         1.0760         1.3310       0.322590         2.3040
       4646.00        13.2710       104.8500        66.0090         1.0860         1.4500       0.326580         2.2880
       4646.50        13.2210       105.8000        65.6090         1.0860         1.4780       0.325780         2.3120
       4647.00        13.2210       106.9500        68.4110         1.0760         1.4370       0.331380         2.3360
       4647.50        13.2710       107.0500        73.6150         1.0670         1.4230       0.333770         2.3040
       4648.00        13.2710       108.0500        78.0170         1.0470         1.3570       0.324590         2.3280
       4648.50        13.2210       108.4500        77.0170         1.0280         1.3190       0.324590         2.3480
       4649.00        13.2210       109.1500        74.6150         1.0280         1.2700       0.320190         2.3440
       4649.50        13.2710       110.0000        70.9130         1.0280         1.2460       0.321790         2.3440
       4650.00        13.2710       110.2000        69.4120         1.0470         1.1540       0.313800         2.3450
       4650.50        13.3700       110.0500        68.5110         1.0670         1.1990       0.306610         2.3460
       4651.00        13.2210       109.3000        69.2120         1.0670         1.3190       0.314800         2.3540
       4651.50        13.1720       105.7500        69.7120         1.0670         1.4370       0.325780         2.3440
       4652.00        13.1720       104.2500        71.0130         1.0380         1.5950       0.323390         2.3250
       4652.50        13.1720       104.9000        69.6120         1.0280         1.6260       0.302620         2.3240
       4653.00        13.2210       106.0500        71.6130         1.0090         1.5070       0.302220         2.3360
       4653.50        13.2210       107.6000        75.4160         0.9910         1.4100       0.321390         2.3300
       4654.00        13.2210       108.9000        75.2160         0.9640         1.2940       0.334170         2.3320
       4654.50        13.1720       110.1000        77.0170         0.9380         1.2220       0.339360         2.3360
       4655.00        13.1720       110.8000        79.2180         0.9040         1.2110       0.346750         2.3460
       4655.50        13.1720       110.6500        77.3170         0.8870         1.2220       0.362530         2.3300
       4656.00        13.1720       109.7000        75.4160         0.8870         1.2700       0.355340         2.3240
       4656.50        13.1720       109.4500        72.8140         0.8870         1.2940       0.325780         2.3280
       4657.00        13.2210       109.3500        72.2140         0.8870         1.3060       0.317000         2.3360
       4657.50        13.2210       110.0000        69.4120         0.8870         1.3190       0.320990         2.3520
       4658.00        13.2210       109.3500        67.4100         0.8950         1.3440       0.321390         2.3600
       4658.50        13.2710       109.4000        69.7120         0.9040         1.3700       0.321790         2.3460
       4659.00        13.2210       109.0000        71.4130         0.9380         1.3700       0.327380         2.3440
       4659.50        13.2210       109.9000        72.0130         0.9550         1.3570       0.322990         2.3560
       4660.00        13.2210       108.2000        70.5120         0.9550         1.3700       0.337170         2.3560
       4660.50        13.2710       106.7000        69.7120         0.9380         1.4640       0.338760         2.3700
       4661.00        13.2210       104.4000        70.0120         0.9200         1.5360       0.321990         2.3780
       4661.50        13.2210       104.1000        69.2120         0.8950         1.5360       0.314600         2.3680
       4662.00        13.2210       106.1000        69.8120         0.8870         1.3960       0.308610         2.3760
       4662.50        13.2710       109.2500        70.6120         0.8710         1.2340       0.313800         2.3560
       4663.00        13.3200       111.8000        72.0130         0.8550         1.1110       0.327380         2.3360
       4663.50        13.3200       111.7000        71.4130         0.8240         1.0900       0.333770         2.3440
       4664.00        13.3200       111.6500        72.0130         0.7800         1.1110       0.326180         2.3360
       4664.50        13.3200       112.0000        71.6130         0.7660         1.1760       0.321790         2.3440
       4665.00        13.3200       112.3000        73.0140         0.7520         1.1990       0.334170         2.3600
       4665.50        13.3200       113.1000        76.0160         0.7380         1.1990       0.352940         2.3760
       4666.00        13.2710       113.0000        76.9170         0.7380         1.1990       0.360130         2.3700
       4666.50        13.2710       113.2500        79.2180         0.7380         1.1760       0.349750         2.3700
       4667.00        13.2210       113.1500        79.3180         0.7380         1.1540       0.352940         2.3840
       4667.50        13.2210       113.6000        75.6160         0.7380         1.1540       0.359730         2.3720
       4668.00        13.2210       112.9000        76.0160         0.7240         1.1540       0.353140         2.3760
       4668.50        13.2210       112.5500        78.6180         0.7240         1.1540       0.360930         2.3700
       4669.00        13.2210       113.0500        78.4180         0.7380         1.1760       0.370520         2.3680
       4669.50        13.2710       112.5000        76.1160         0.7380         1.1880       0.378500         2.3740
       4670.00        13.2710       111.6500        74.5150         0.7660         1.2220       0.378500         2.3680
       4670.50        13.2210       112.8000        77.0170         0.8020         1.2340       0.368120         2.3840
       4671.00        13.2710       112.1500        81.0200         0.8390         1.2340       0.352140         2.3960
       4671.50        13.2210       109.3000        81.6200         0.8870         1.2700       0.339360         2.4020
       4672.00        13.2210       106.2500        79.2180         0.9200         1.3960       0.333770         2.3920
       4672.50        13.2210       102.8500        77.6170         0.9290         1.5650       0.315000         2.3880
       4673.00        13.2710       101.2000        76.8170         0.9460         1.7050       0.303420         2.4040
       4673.50        13.2710       102.9000        76.4160         0.9550         1.7540       0.309810         2.4090
       4674.00        13.2710       104.9000        78.9180         0.9640         1.6570       0.317000         2.4080
       4674.50        13.2210       106.4000        79.0180         0.9460         1.5070       0.326580         2.4000
       4675.00        13.2210       107.2000        77.2170         0.9200         1.4230       0.332170         2.4000
       4675.50        13.2710       108.1500        75.2160         0.8870         1.3570       0.340960         2.4040
