~Version Information Block
VERS .                 2.00:  CWLS LOG ASCII STANDARD - VERSION 2.00
WRAP .                   NO:  One line per depth step
~Well Information Block
#MNEM.UNIT        Data Type   Information
#---------- ----------------  -----------
STRT .FT            3001.00:  START DEPTH
STOP .FT            4759.50:  STOP DEPTH
STEP .FT               0.50:  STEP
NULL .              -999.25:  NULL VALUE
COMP .                     :  COMPANY
WELL .               WELL-3:  WELL
FLD  .                     :  FIELD
LOC  .                     :  LOCATION
CTRY .                     :  COUNTRY
STAT .                     :  STATE
CNTY .                     :  COUNTY
SRVC .                     :  SERVICE COMPANY
DATE .                     :  DATE
API  .                     :  API NUMBER
UWI  .                     :  UNIQUE WELL ID
~Curve Information Block
#MNEM.UNIT         API CODE   Curve Description
#---------- ----------------  -----------------
DEPTH.FT                   :  DEPTH CURVE
CALI .IN                   :  
DT   .US/F                 :  
GR   .GAPI                 :  
ILD  .OHMM                 :  
MSFL .OHMM                 :  
NPHI_LS.V/V                  :  
RHOB .G/C3                 :  
~Parameter Information Block
#MNEM.UNIT            Value   Description
#---------- ----------------  -----------
PROJECT.     edit@dataset:  
SET  .                 WIRE:  
~Other Information Block
# 
~A       DEPTH           CALI             DT             GR            ILD           MSFL        NPHI_LS           RHOB 
# ...
       3336.00        17.7230       150.6500        70.5120         1.0280         0.5440       0.424040         1.9400
       3336.50        17.5740       147.6500        74.2150         1.0090         0.5000       0.408060         1.9440
       3337.00        17.4260       143.3000        78.0170         0.9730         0.4770       0.407260         1.9380
       3337.50        17.5250       138.9000        78.4180         0.9550         0.4860       0.436820         1.9480
       3338.00        17.9200       138.4000        78.4180         0.9640         0.5190       0.448800         1.9560
       3338.50        18.3160       140.4000        79.2180         0.9640         0.5500       0.433620         1.9370
       3339.00        18.7120       142.5000        80.0190         0.9640         0.5500       0.424830         1.9000
       3339.50        18.7120       144.3500        77.6170         0.9640         0.5240       0.434420         1.8880
       3340.00        18.5140       143.6000        77.5170         0.9640         0.4860       0.430430         1.9240
       3340.50        18.1180       141.6500        78.7180         0.9640         0.4500       0.429630         1.9520
       3341.00        17.8710       144.8000        80.4190         0.9820         0.4420       0.433620         1.9920
       3341.50        17.7230       141.1500        85.0220         1.0000         0.4540       0.436020         2.0220
       3342.00        17.5250       134.7500        88.3240         1.0190         0.4950       0.423240         2.0540
       3342.50        17.2280       132.4000        86.5230         1.0280         0.5660       0.412850         2.1160
       3343.00        16.8320       129.0000        82.0200         1.0280         0.6520       0.415250         2.1440
       3343.50        16.3370       125.2500        78.8180         1.0090         0.7520       0.401670         2.1520
       3344.00        15.4470       126.9500        74.9150         1.0000         0.8270       0.399670         2.1680
       3344.50        14.4080       129.1000        74.4150         0.9910         0.8760       0.400070         2.1800
       3345.00        13.9140       128.3000        75.6160         0.9910         0.9010       0.401670         2.1760
       3345.50        13.8150       128.0500        73.2140         1.0090         0.9100       0.391290         2.1680
       3346.00        13.7650       128.7500        67.6100         1.0670         0.9270       0.364930         2.1760
       3346.50        13.6170       122.9000        59.7050         1.1690         0.9730       0.353340         2.1960
       3347.00        13.5180       117.3000        54.4020         1.3300         1.0300       0.346550         2.2210
       3347.50        13.4190       107.5500        52.0000         1.4860         1.1110       0.329780         2.2340
       3348.00        13.3700        95.6000        49.9990         1.5700         1.2460       0.292240         2.2720
       3348.50        13.3700        89.6000        51.1990         1.5990         1.3960       0.249500         2.3130
       3349.00        13.4680        87.1000        56.0030         1.5420         1.9660       0.265880         2.3300
       3349.50        13.5670        91.3500        62.8070         1.4320         2.5670       0.318200         2.2760
       3350.00        13.8150       104.4000        69.6120         1.3060         2.6160       0.354540         2.1980
       3350.50        14.2600       128.7500        75.6160         1.1480         2.2900       0.365720         2.1440
       3351.00        14.9030       137.8500        83.2210         0.9910         1.5360       0.370520         2.1320
       3351.50        15.7930       144.0500        88.0240         0.8550         0.9910       0.385690         2.1120
       3352.00        16.7830       148.0000        87.6240         0.7800         0.8120       0.398470         2.0840
       3352.50        17.6730       145.2500        84.0220         0.7310         0.7170       0.396080         2.0880
       3353.00        18.1180       142.7500        81.0200         0.7110         0.6520       0.389290         2.0720
       3353.50        18.1680       142.0000        82.2200         0.6980         0.6160       0.387290         2.0880
       3354.00        17.9700       140.0500        83.2210         0.6980         0.6100       0.375310         2.0900
       3354.50        17.7720       138.5500        82.8210         0.6860         0.6100       0.376110         2.0720
       3355.00        17.7720       137.8000        85.4220         0.6730         0.6100       0.386490         2.0320
       3355.50        17.9200       138.9000        86.8230         0.6860         0.6220       0.412050         2.0080
       3356.00        17.7230       140.8000        82.5210         0.6980         0.5710       0.426430         2.0010
       3356.50        17.6730       146.4000        77.4170         0.7310         0.5550       0.443210         2.0320
       3357.00        17.6240       150.5500        74.2150         0.7800         0.5440       0.444010         2.0640
       3357.50        17.5250       150.9500        75.6160         0.8390         0.5500       0.449600         2.0720
       3358.00        17.2280       149.8500        73.6150         0.8950         0.5710       0.428430         2.0800
       3358.50        16.7330       140.0000        70.6120         0.9550         0.6100       0.410460         2.0880
       3359.00        16.0900       128.3000        70.4120         1.0380         0.6910       0.381700         2.1060
       3359.50        15.3980       111.3000        71.3130         1.1170         0.8270       0.356340         2.1200
       3360.00        15.0020       104.0000        70.8130         1.1910         0.9630       0.348150         2.1320
       3360.50        15.2490       107.5500        73.6150         1.2820         1.0700       0.374510         2.1240
       3361.00        16.0410       119.3000        76.3160         1.3300         1.0700       0.410460         2.1280
       3361.50        16.8320       128.9000        80.0190         1.2940         0.9100       0.432820         2.1200
       3362.00        16.9810       136.6000        83.6210         1.1910         0.7740       0.439610         2.0720
       3362.50        17.0300       140.4000        81.3200         1.1070         0.6780       0.444410         2.0520
       3363.00        17.1780       142.6500        77.2170         1.0090         0.6280       0.433220         2.0320
       3363.50        17.1290       142.7500        73.0140         0.9550         0.5990       0.449200         2.0250
       3364.00        16.9310       146.4500        73.6150         0.9200         0.5880       0.442410         2.0260
       3364.50        16.7830       150.7500        74.9150         0.8870         0.5990       0.424830         2.0480
       3365.00        16.9310       151.5000        73.2140         0.8550         0.5880       0.429630         2.0800
       3365.50        17.1290       154.5500        71.3130         0.8390         0.5930       0.430430         2.0560
       3366.00        17.2770       155.5500        72.2140         0.8320         0.5880       0.419240         2.0560
       3366.50        17.3760       156.3000        75.6160         0.8090         0.5760       0.420040         2.0700
       3367.00        17.3760       157.7500        78.8180         0.7940         0.6050       0.420840         2.0920
       3367.50        17.4750       159.1000        77.6170         0.7940         0.6340       0.423240         2.0920
       3368.00        17.7230       157.7000        75.4160         0.7800         0.6280       0.428030         2.0660
       3368.50        17.9200       157.3500        74.0150         0.7660         0.5990       0.439210         2.0320
       3369.00        17.7720       156.9000        75.2160         0.7730         0.5760       0.428430         2.0320
