~Version Information Block
VERS .                 2.00:  CWLS LOG ASCII STANDARD - VERSION 2.00
WRAP .                   NO:  One line per depth step
~Well Information Block
#MNEM.UNIT        Data Type   Information
#---------- ----------------  -----------
STRT .FT            3001.00:  START DEPTH
STOP .FT            4759.50:  STOP DEPTH
STEP .FT               0.50:  STEP
NULL .              -999.25:  NULL VALUE
COMP .                     :  COMPANY
WELL .               WELL-3:  WELL
FLD  .                     :  FIELD
LOC  .                     :  LOCATION
CTRY .                     :  COUNTRY
STAT .                     :  STATE
CNTY .                     :  COUNTY
SRVC .                     :  SERVICE COMPANY
DATE .                     :  DATE
API  .                     :  API NUMBER
UWI  .                     :  UNIQUE WELL ID
~Curve Information Block
#MNEM.UNIT         API CODE   Curve Description
#---------- ----------------  -----------------
DEPTH.FT                   :  DEPTH CURVE
CALI .IN                   :  
DT   .US/F                 :  
GR   .GAPI                 :  
ILD  .OHMM                 :  
MSFL .OHMM                 :  
NPHI_LS.V/V                  :  
RHOB .G/C3                 :  
~Parameter Information Block
#MNEM.UNIT            Value   Description
#---------- ----------------  -----------
PROJECT.     edit@dataset:  
SET  .                 WIRE:  
~Other Information Block
# 
~A       DEPTH           CALI             DT             GR            ILD           MSFL        NPHI_LS           RHOB 
# ...
       4408.00        13.5670       120.5500        76.4160         0.6730         0.7970       0.395280         2.2960
       4408.50        13.5180       120.4000        75.4160         0.6730         0.8120       0.400870         2.2640
       4409.00        13.5180       119.2500        76.1160         0.6730         0.8270       0.397680         2.2680
       4409.50        13.4190       118.9500        75.8160         0.6730         0.8040       0.385090         2.2660
       4410.00        13.2710       118.7000        73.6150         0.6730         0.8040       0.387290         2.2640
       4410.50        13.2710       119.0500        71.2130         0.6730         0.8270       0.389690         2.2640
       4411.00        13.2710       119.2500        74.2150         0.6790         0.8350       0.378500         2.2480
       4411.50        13.2210       119.5000        75.5160         0.6860         0.8430       0.373710         2.2580
       4412.00        13.1720       119.2500        74.2150         0.6860         0.8350       0.384890         2.2920
       4412.50        13.1720       119.6500        74.8150         0.6860         0.8040       0.382500         2.2680
       4413.00        13.1720       119.0500        74.0150         0.6860         0.7970       0.379300         2.2440
       4413.50        13.1720       118.7500        77.2170         0.6790         0.7970       0.401270         2.2500
       4414.00        13.2210       119.7000        78.0170         0.6730         0.7970       0.410460         2.2640
       4414.50        13.3200       119.5000        77.6170         0.6730         0.8120       0.401670         2.2800
       4415.00        13.3700       119.8000        78.4180         0.6670         0.8120       0.397680         2.2800
       4415.50        13.4190       119.3000        82.4200         0.6670         0.8270       0.400870         2.3040
       4416.00        13.4680       118.6000        84.4220         0.6610         0.8120       0.406460         2.3040
       4416.50        13.5180       118.9500        84.8220         0.6610         0.7970       0.415250         2.2960
       4417.00        13.5670       119.5000        86.0230         0.6610         0.8120       0.404470         2.2960
       4417.50        13.5180       120.3000        86.4230         0.6550         0.8040       0.394880         2.3050
       4418.00        13.5180       120.0500        87.2240         0.6490         0.8120       0.384890         2.3090
       4418.50        13.5670       120.3000        86.0230         0.6490         0.8270       0.386490         2.2940
       4419.00        13.5180       120.4500        82.8210         0.6490         0.8120       0.396080         2.2840
       4419.50        13.4680       120.1500        82.1200         0.6430         0.7820       0.389690         2.2740
       4420.00        13.4190       120.2000        80.8190         0.6430         0.7820       0.377310         2.2720
       4420.50        13.4190       120.2000        81.2200         0.6430         0.7820       0.380100         2.2600
       4421.00        13.3700       119.2000        82.2200         0.6490         0.7970       0.380500         2.2480
       4421.50        13.2710       119.4500        81.7200         0.6490         0.7970       0.376110         2.2520
       4422.00        13.2210       118.8000        80.4190         0.6550         0.7890       0.362930         2.2560
       4422.50        13.1720       119.2000        77.4170         0.6610         0.7970       0.370520         2.2560
       4423.00        13.1720       119.1000        77.6170         0.6550         0.7970       0.380100         2.2720
       4423.50        13.1720       118.0000        80.0190         0.6490         0.8270       0.385690         2.2720
       4424.00        13.2710       117.7000        82.1200         0.6550         0.8600       0.392080         2.2720
       4424.50        13.3700       117.9000        83.8210         0.6790         0.8930       0.393680         2.2880
       4425.00        13.5180       118.0500        83.7210         0.7240         0.9010       0.392480         2.2960
       4425.50        13.5670       118.5500        83.4210         0.8090         0.8930       0.397880         2.3060
       4426.00        13.6170       117.0000        79.3180         0.9290         0.8930       0.382500         2.3320
       4426.50        13.5670       110.1000        75.6160         1.0280         0.9360       0.350550         2.3680
       4427.00        13.5180        98.7000        71.6130         1.0670         1.2940       0.334770         2.3740
       4427.50        13.4680        87.7000        72.0130         1.0760         1.8570       0.317800         2.4080
       4428.00        13.4680        87.1000        75.3160         1.0860         2.0820       0.302820         2.4240
       4428.50        13.5670        94.5500        77.6170         1.0860         2.0430       0.305020         2.4640
       4429.00        13.6170       103.8000        78.7180         1.0670         1.5500       0.335370         2.4580
       4429.50        13.6660       111.6000        76.9170         0.9910         1.0700       0.356140         2.4080
       4430.00        13.7650       115.8000        75.4160         0.8870         0.9540       0.356940         2.3610
       4430.50        13.8150       114.5500        76.0160         0.7940         0.9270       0.368120         2.3370
       4431.00        13.8150       114.9000        77.0170         0.7310         0.9190       0.388090         2.3200
       4431.50        13.7650       115.5500        75.8160         0.6980         0.9270       0.383300         2.3280
       4432.00        13.6660       113.7000        75.4160         0.6920         0.9450       0.364930         2.3400
       4432.50        13.6170       112.3000        75.2160         0.6980         0.9450       0.365720         2.3360
       4433.00        13.5670       111.2000        74.8150         0.7180         0.9540       0.362530         2.3440
       4433.50        13.5670       110.6500        74.0150         0.7380         0.9910       0.374510         2.3520
       4434.00        13.5670       110.5000        74.0150         0.8390         1.0300       0.375310         2.3530
       4434.50        13.5670       110.2000        70.0120         0.9040         1.0500       0.365720         2.3600
       4435.00        13.4680       109.4000        64.0080         1.0860         1.0700       0.354540         2.3360
       4435.50        13.4190       109.1000        54.8020         1.2820         1.0800       0.332170         2.3120
       4436.00        13.2710       107.2500        47.4970         1.5700         1.3700       0.313000         2.2960
       4436.50        13.0730       101.6000        37.3900         1.9410         1.9110       0.289840         2.2760
       4437.00        12.9240        87.6000        31.9860         2.4890         2.7170       0.265480         2.2600
       4437.50        12.8750        84.6000        29.5850         3.4670         3.9750       0.259480         2.2520
       4438.00        12.8750        84.8000        30.3850         5.1990         4.3720       0.255490         2.2580
       4438.50        12.8750        88.4000        30.5850         7.5840         4.0520       0.265880         2.2760
       4439.00        12.8750        94.7500        30.1850         9.3740         3.6150       0.276260         2.2810
       4439.50        12.8750        99.0000        29.0840        10.0910         2.9880       0.276260         2.2500
       4440.00        12.8750        99.2500        27.4830         8.1640         2.7960       0.273860         2.2300
       4440.50        12.9240        97.8500        27.9840         7.1110         2.9320       0.277060         2.2400
       4441.00        12.9740        96.0000        29.9850         5.5970         3.2870       0.273460         2.2340
