~Version Information Block
VERS .                 2.00:  CWLS LOG ASCII STANDARD - VERSION 2.00
WRAP .                   NO:  One line per depth step
~Well Information Block
#MNEM.UNIT        Data Type   Information
#---------- ----------------  -----------
STRT .FT            3001.00:  START DEPTH
STOP .FT            4759.50:  STOP DEPTH
STEP .FT               0.50:  STEP
NULL .              -999.25:  NULL VALUE
COMP .                     :  COMPANY
WELL .               WELL-3:  WELL
FLD  .                     :  FIELD
LOC  .                     :  LOCATION
CTRY .                     :  COUNTRY
STAT .                     :  STATE
CNTY .                     :  COUNTY
SRVC .                     :  SERVICE COMPANY
DATE .                     :  DATE
API  .                     :  API NUMBER
UWI  .                     :  UNIQUE WELL ID
~Curve Information Block
#MNEM.UNIT         API CODE   Curve Description
#---------- ----------------  -----------------
DEPTH.FT                   :  DEPTH CURVE
CALI .IN                   :  
DT   .US/F                 :  
GR   .GAPI                 :  
ILD  .OHMM                 :  
MSFL .OHMM                 :  
NPHI_LS.V/V                  :  
RHOB .G/C3                 :  
~Parameter Information Block
#MNEM.UNIT            Value   Description
#---------- ----------------  -----------
PROJECT.     edit@dataset:  
SET  .                 WIRE:  
~Other Information Block
# 
~A       DEPTH           CALI             DT             GR            ILD           MSFL        NPHI_LS           RHOB 
# ...
       3101.50        14.9030       142.0500        70.0120         0.8630         0.5760       0.447200         1.9320
       3102.00        14.8040       136.9500        68.8110         0.8320         0.6280       0.438010         1.9200
       3102.50        15.0510       137.6000        69.1110         0.8170         0.6340       0.429630         1.9480
       3103.00        15.7440       142.0000        70.0120         0.8170         0.5660       0.437620         1.9600
       3103.50        16.5350       146.4500        73.0140         0.8240         0.4680       0.440810         1.9250
       3104.00        16.7330       152.5000        73.8150         0.8240         0.4020       0.417050         1.8640
       3104.50        16.4360       156.3000        74.2150         0.8240         0.3900       0.408860         1.7960
       3105.00        15.5460       156.9000        74.4150         0.8470         0.4050       0.416850         1.7800
       3105.50        14.4580       158.0500        72.2140         0.9040         0.4630       0.431230         1.7840
       3106.00        13.9140       154.6000        70.7130         1.0190         0.5140       0.431230         1.8320
       3106.50        13.8150       143.3500        67.9110         1.1910         0.5820       0.429630         1.8880
       3107.00        13.4680       130.8500        62.8070         1.4060         0.7380       0.418440         1.9520
       3107.50        13.0230       124.4000        61.3060         1.6440         0.9450       0.402470         2.0080
       3108.00        12.8750       120.4000        61.3060         1.9410         1.2580       0.384890         2.0400
       3108.50        12.8250       123.0000        61.6060         2.2490         1.5500       0.349750         2.0920
       3109.00        12.8250       123.7500        62.2070         2.5350         1.6570       0.342560         2.1060
       3109.50        12.8250       121.0500        62.1070         2.7040         1.6260       0.333770         2.0680
       3110.00        12.7760       117.7500        58.8040         2.7290         1.5210       0.324190         2.0600
       3110.50        12.7760       116.6000        57.6040         2.5820         1.4500       0.319790         2.0700
       3111.00        12.6770       115.7000        58.0040         2.3990         1.3960       0.320990         2.0840
       3111.50        12.6280       115.3500        58.0040         2.2490         1.3570       0.324590         2.1000
       3112.00        12.6280       114.7000        56.3030         2.2080         1.3570       0.328980         2.1160
       3112.50        12.5780       115.0000        58.1040         2.2280         1.3570       0.319390         2.1200
       3113.00        12.5780       115.0000        59.7050         2.3550         1.3700       0.309210         2.1040
       3113.50        12.5780       115.2500        58.4040         2.5820         1.3700       0.308210         2.0960
       3114.00        12.5780       114.8500        61.1060         2.8840         1.3700       0.313000         2.0920
       3114.50        12.5780       115.3000        63.0070         3.1040         1.3960       0.312210         2.0840
       3115.00        12.5780       116.0000        63.0070         3.2210         1.4230       0.319390         2.0920
       3115.50        12.5780       116.3500        65.3090         3.1330         1.5070       0.324990         2.0840
       3116.00        12.5780       117.7500        65.4090         2.9920         1.5650       0.322990         2.0800
       3116.50        12.5780       118.6500        64.0080         2.8310         1.5950       0.314800         2.0720
       3117.00        12.5780       117.7000        62.4070         2.6060         1.5650       0.317800         2.0880
       3117.50        12.5290       116.4000        62.2070         2.3550         1.5210       0.324190         2.1040
       3118.00        12.5290       115.5000        61.6060         2.0890         1.5070       0.333770         2.1240
       3118.50        12.5290       113.8000        60.8060         1.8710         1.5070       0.330580         2.1380
       3119.00        12.4790       112.8500        61.6060         1.7220         1.5070       0.332570         2.1380
       3119.50        12.4790       112.1000        65.3090         1.6290         1.5070       0.337970         2.1300
       3120.00        12.4300       110.6000        67.3100         1.5560         1.4780       0.327780         2.1440
       3120.50        12.4300       109.7000        70.4120         1.5140         1.4500       0.332170         2.1440
       3121.00        12.4300       110.0000        72.9140         1.4860         1.4500       0.336970         2.1480
       3121.50        12.3800       110.8000        73.2140         1.4590         1.4230       0.339360         2.1760
       3122.00        12.3800       110.8500        70.8130         1.4320         1.4100       0.337370         2.2100
       3122.50        12.3800       112.0000        69.2120         1.4060         1.3960       0.338960         2.2160
       3123.00        12.3800       112.5000        69.0110         1.3800         1.3960       0.348550         2.2260
       3123.50        12.4300       113.4500        70.8130         1.3430         1.3700       0.359530         2.2240
       3124.00        12.5290       114.3000        72.8140         1.2940         1.3960       0.352940         2.2080
       3124.50        12.6770       113.6000        75.2160         1.2590         1.3960       0.344960         2.1840
       3125.00        12.8250       116.4000        76.1160         1.2130         1.3440       0.356940         2.1780
       3125.50        13.0230       117.0000        76.8170         1.1590         1.2460       0.357340         2.1840
       3126.00        13.1720       118.5000        75.4160         1.1070         1.1540       0.372110         2.1800
       3126.50        13.3200       125.3000        71.4130         1.0860         0.9910       0.381700         2.1760
       3127.00        13.4190       131.5000        71.6130         1.0760         0.8270       0.395280         2.1360
       3127.50        13.5670       133.1000        68.8110         1.0470         0.7110       0.392880         2.1040
       3128.00        13.4680       133.7500        67.6100         1.0280         0.7170       0.404470         2.0760
       3128.50        13.0730       126.7000        68.0110         0.9910         0.7890       0.404070         2.0560
       3129.00        12.9240       118.0500        70.6120         0.9640         0.9540       0.375510         2.0480
       3129.50        12.9740       118.4500        72.8140         0.9730         1.1760       0.357140         2.1200
       3130.00        12.9740       119.4500        73.6150         0.9910         1.1760       0.347350         2.1920
       3130.50        12.9740       121.0500        74.4150         1.0090         1.1650       0.348950         2.1920
       3131.00        13.0230       121.6000        75.8160         1.0280         1.1990       0.363330         2.1840
       3131.50        13.0730       120.9000        77.8170         1.0280         1.2110       0.373710         2.1760
       3132.00        13.1220       120.0000        75.2160         1.0280         1.2580       0.372110         2.1680
       3132.50        13.1720       118.6000        73.0140         1.0280         1.2940       0.353740         2.1640
       3133.00        13.2210       116.9500        71.3130         1.0090         1.3060       0.356140         2.1680
       3133.50        13.3200       117.0000        69.8120         1.0280         1.3060       0.375710         2.1780
       3134.00        13.4190       118.8500        69.6120         1.0280         1.2700       0.375510         2.1640
       3134.50        13.5180       124.4000        68.8110         1.0470         1.1990       0.367320         2.1440
