~Version Information Block
VERS .                 2.00:  CWLS LOG ASCII STANDARD - VERSION 2.00
WRAP .                   NO:  One line per depth step
~Well Information Block
#MNEM.UNIT        Data Type   Information
#---------- ----------------  -----------
STRT .FT            3001.00:  START DEPTH
STOP .FT            4759.50:  STOP DEPTH
STEP .FT               0.50:  STEP
NULL .              -999.25:  NULL VALUE
COMP .                     :  COMPANY
WELL .               WELL-3:  WELL
FLD  .                     :  FIELD
LOC  .                     :  LOCATION
CTRY .                     :  COUNTRY
STAT .                     :  STATE
CNTY .                     :  COUNTY
SRVC .                     :  SERVICE COMPANY
DATE .                     :  DATE
API  .                     :  API NUMBER
UWI  .                     :  UNIQUE WELL ID
~Curve Information Block
#MNEM.UNIT         API CODE   Curve Description
#---------- ----------------  -----------------
DEPTH.FT                   :  DEPTH CURVE
CALI .IN                   :  
DT   .US/F                 :  
GR   .GAPI                 :  
ILD  .OHMM                 :  
MSFL .OHMM                 :  
NPHI_LS.V/V                  :  
RHOB .G/C3                 :  
~Parameter Information Block
#MNEM.UNIT            Value   Description
#---------- ----------------  -----------
PROJECT.     edit@dataset:  
SET  .                 WIRE:  
~Other Information Block
# 
~A       DEPTH           CALI             DT             GR            ILD           MSFL        NPHI_LS           RHOB 
# ...
       4508.50        13.5180       112.4500        85.8230         0.7940         1.0100       0.340560         2.3560
       4509.00        13.4680       112.1500        83.5210         0.7800         0.9730       0.342560         2.3480
       4509.50        13.3700       112.5500        83.2210         0.7800         0.9540       0.337770         2.3700
       4510.00        13.3700       113.4000        85.2220         0.7730         0.9450       0.349950         2.3680
       4510.50        13.3700       112.2000        87.6240         0.7660         0.9540       0.363330         2.3720
       4511.00        13.3200       111.6000        85.2220         0.7660         1.0010       0.356940         2.3780
       4511.50        13.2710       110.5000        84.9220         0.7520         1.0400       0.351350         2.3480
       4512.00        13.1720       110.7000        84.0220         0.7520         1.0800       0.348550         2.3360
       4512.50        13.2210       112.4500        85.4220         0.7520         1.0800       0.336970         2.3520
       4513.00        13.2710       112.0500        84.0220         0.7660         1.0800       0.334170         2.3620
       4513.50        13.2710       111.6500        79.4180         0.8090         1.0900       0.337770         2.3680
       4514.00        13.2710       109.9500        77.6170         0.8710         1.1110       0.346550         2.3680
       4514.50        13.2710       108.4000        73.6150         0.9730         1.1760       0.339360         2.3620
       4515.00        13.2710       104.6000        64.5080         1.1480         1.2700       0.317800         2.3680
       4515.50        13.2710        99.3500        57.6040         1.3300         1.5360       0.297030         2.3840
       4516.00        13.2210        90.2500        54.0010         1.5990         2.2040       0.277860         2.3690
       4516.50        13.1720        80.6500        51.8000         1.7700         3.8270       0.246100         2.3860
       4517.00        13.2710        74.1000        51.6000         1.9410         5.5990       0.229330         2.4320
       4517.50        13.3200        74.5500        52.3000         2.0320         6.1580       0.217350         2.4560
       4518.00        13.3700        79.4000        53.4010         2.0320         4.9010       0.222740         2.4560
       4518.50        13.3200        87.2500        56.4030         1.8880         3.1340       0.252300         2.4120
       4519.00        13.2210        96.0500        60.1050         1.6900         2.1220       0.285050         2.3600
       4519.50        13.2710        99.8500        67.2100         1.4720         1.6730       0.303620         2.3140
       4520.00        13.3700       104.0000        71.2130         1.2820         1.5500       0.305810         2.3120
       4520.50        13.4190       104.8500        72.6140         1.1800         1.4780       0.309810         2.3140
       4521.00        13.4680       105.4000        70.8130         1.1270         1.4100       0.308210         2.2820
       4521.50        13.5180       105.4000        70.0120         1.0960         1.4370       0.294630         2.2960
       4522.00        13.3700       105.2000        70.8130         1.0860         1.4230       0.291440         2.3280
       4522.50        13.2710       105.0500        68.0110         1.0860         1.4100       0.297830         2.3200
       4523.00        13.2710       103.4000        67.6100         1.0860         1.4780       0.305020         2.3160
       4523.50        13.2710       101.6500        67.4100         1.0760         1.6260       0.310210         2.3200
       4524.00        13.2210       101.0500        68.8110         1.0670         1.7210       0.310210         2.3280
       4524.50        13.2210       102.4500        68.1110         1.0380         1.8220       0.305020         2.3120
       4525.00        13.2210       103.0000        68.1110         1.0000         1.8050       0.314600         2.3200
       4525.50        13.2210       104.4000        67.2100         0.9290         1.6890       0.316200         2.3360
       4526.00        13.2210       104.9000        64.8090         0.8320         1.5800       0.323390         2.3400
       4526.50        13.2210       103.2500        62.2070         0.7380         1.5070       0.327380         2.3200
       4527.00        13.2710       100.4000        59.4050         0.6610         1.4500       0.324590         2.3200
       4527.50        13.2710       102.0000        55.5020         0.6250         1.3310       0.328180         2.3360
       4528.00        13.3200       108.8000        56.0030         0.6490         1.0800       0.322990         2.3320
       4528.50        13.3700       111.7500        56.4030         0.6730         0.8680       0.333770         2.3290
       4529.00        13.3700       113.7000        54.9020         0.7110         0.7890       0.331380         2.3440
       4529.50        13.2210       107.5000        52.4000         0.7730         0.9360       0.325780         2.3240
       4530.00        13.0730        97.1500        52.8000         0.8630         1.2940       0.301820         2.2880
       4530.50        13.0230        91.7000        54.9020         1.1270         1.8050       0.269870         2.3280
       4531.00        13.0230        90.4500        55.7020         1.4450         2.2900       0.261880         2.3920
       4531.50        13.0730        85.8000        54.6020         1.8200         2.5910       0.257290         2.4020
       4532.00        13.1720        78.1000        54.8020         1.9590         3.3500       0.246700         2.4120
       4532.50        13.3200        73.6500        59.2050         1.7860         3.6490       0.238120         2.4240
       4533.00        13.5670        78.1500        67.8110         1.5560         3.0460       0.227930         2.4240
       4533.50        14.0130        90.8000        74.8150         1.3430         2.1420       0.244310         2.3920
       4534.00        14.2100       103.6000        77.2170         1.1690         1.2940       0.285840         2.3360
       4534.50        14.1610       112.0500        77.7170         1.0280         0.8840       0.328580         2.2720
       4535.00        14.0620       116.1500        79.6190         0.8950         0.7820       0.346550         2.1960
       4535.50        14.1610       115.7500        78.8180         0.8090         0.7380       0.359730         2.1760
       4536.00        14.2100       113.9000        76.4160         0.7520         0.7170       0.356140         2.1440
       4536.50        14.3090       114.4500        75.4160         0.7450         0.7310       0.343360         2.1200
       4537.00        14.2100       114.0000        74.6150         0.7520         0.7520       0.359730         2.1540
       4537.50        13.9140       111.2500        76.1160         0.7660         0.7820       0.364930         2.1840
       4538.00        13.6660       114.0500        77.4170         0.7800         0.8270       0.371320         2.2040
       4538.50        13.4190       112.2000        80.0190         0.7940         0.8600       0.354540         2.2240
       4539.00        13.3700       111.2000        77.6170         0.7940         0.8760       0.340360         2.2640
       4539.50        13.4190       111.7000        76.0160         0.8020         0.8510       0.344160         2.2900
       4540.00        13.4680       114.2000        78.1180         0.8090         0.8120       0.352940         2.2740
       4540.50        13.3700       115.8000        80.4190         0.8090         0.7820       0.360130         2.2740
       4541.00        13.3200       116.4000        80.6190         0.8170         0.7970       0.364530         2.2450
       4541.50        13.2710       114.6000        80.1190         0.8170         0.8120       0.356140         2.2240
