~Version Information Block
VERS .                 2.00:  CWLS LOG ASCII STANDARD - VERSION 2.00
WRAP .                   NO:  One line per depth step
~Well Information Block
#MNEM.UNIT        Data Type   Information
#---------- ----------------  -----------
STRT .FT            3001.00:  START DEPTH
STOP .FT            4759.50:  STOP DEPTH
STEP .FT               0.50:  STEP
NULL .              -999.25:  NULL VALUE
COMP .                     :  COMPANY
WELL .               WELL-3:  WELL
FLD  .                     :  FIELD
LOC  .                     :  LOCATION
CTRY .                     :  COUNTRY
STAT .                     :  STATE
CNTY .                     :  COUNTY
SRVC .                     :  SERVICE COMPANY
DATE .                     :  DATE
API  .                     :  API NUMBER
UWI  .                     :  UNIQUE WELL ID
~Curve Information Block
#MNEM.UNIT         API CODE   Curve Description
#---------- ----------------  -----------------
DEPTH.FT                   :  DEPTH CURVE
CALI .IN                   :  
DT   .US/F                 :  
GR   .GAPI                 :  
ILD  .OHMM                 :  
MSFL .OHMM                 :  
NPHI_LS.V/V                  :  
RHOB .G/C3                 :  
~Parameter Information Block
#MNEM.UNIT            Value   Description
#---------- ----------------  -----------
PROJECT.     edit@dataset:  
SET  .                 WIRE:  
~Other Information Block
# 
~A       DEPTH           CALI             DT             GR            ILD           MSFL        NPHI_LS           RHOB 
       3001.00        14.1120       154.5500        80.3190         0.9820         0.9630       0.388890         2.1440
       3001.50        14.1610       156.4000        80.8190         0.9640         0.9540       0.400870         2.1200
       3002.00        13.8640       151.3500        78.1180         0.9550         0.9910       0.397680         2.1300
       3002.50        13.6170       148.9500        78.4180         0.9730         0.9630       0.400870         2.1440
       3003.00        13.6660       147.4500        78.8180         1.0380         0.9100       0.401670         2.1520
       3003.50        13.5670       143.6000        77.3170         1.1480         0.8760       0.391290         2.1320
       3004.00        13.2210       137.7000        75.4160         1.3060         0.9100       0.383300         2.1120
       3004.50        12.9740       129.6500        74.8150         1.4720         1.0300       0.370520         2.1000
       3005.00        12.9740       119.8000        72.8140         1.6290         1.2940       0.351750         2.1040
       3005.50        13.0230       115.2500        71.6130         1.8030         1.4780       0.346950         2.1200
       3006.00        13.1220       115.5000        71.2130         1.8880         1.5500       0.343760         2.1160
       3006.50        13.3700       117.1500        73.9150         1.8530         1.5650       0.335370         2.1040
       3007.00        13.7160       114.5000        77.2170         1.7380         1.4370       0.336970         2.1080
       3007.50        14.1610       117.6000        80.8190         1.6140         1.2110       0.352940         2.1120
       3008.00        14.5070       128.5000        81.0200         1.4860         0.9540       0.377310         2.1160
       3008.50        14.6060       144.3000        76.0160         1.3800         0.7820       0.389690         2.1280
       3009.00        14.5570       151.3500        74.0150         1.2940         0.7170       0.400870         2.1400
       3009.50        14.3090       150.7500        72.8140         1.1910         0.7670       0.404070         2.1320
       3010.00        13.9630       144.4500        72.8140         1.1170         0.8680       0.414050         2.1440
       3010.50        13.8150       135.5500        74.9150         1.0670         0.9540       0.408860         2.1340
       3011.00        13.8640       124.2500        77.8170         1.0280         1.0300       0.388090         2.1320
       3011.50        13.9140       122.8000        75.2160         1.0000         1.0300       0.381700         2.1620
       3012.00        13.9140       126.6000        73.7150         0.9820         1.0300       0.383300         2.1850
       3012.50        13.9140       132.0500        73.6150         0.9640         0.9910       0.387290         2.1620
       3013.00        14.0130       140.0000        71.6130         0.9550         0.9190       0.397680         2.1440
       3013.50        13.9140       149.4500        71.0130         0.9640         0.8510       0.416850         2.1360
       3014.00        13.7650       152.6000        73.6150         0.9730         0.8270       0.424830         2.1240
       3014.50        13.6660       146.2000        74.9150         0.9640         0.8760       0.414450         2.1200
       3015.00        13.6170       138.3000        73.8150         0.9550         0.9910       0.400870         2.1240
       3015.50        13.6660       133.0500        72.3140         0.9640         1.1110       0.411260         2.1360
       3016.00        13.8640       126.9500        69.2120         1.0190         1.2220       0.401670         2.1520
       3016.50        13.7650       128.0000        68.0110         1.1070         1.2460       0.394880         2.1780
       3017.00        13.7160       133.4500        70.6120         1.1690         1.2220       0.385690         2.1840
       3017.50        13.7650       131.3000        74.2150         1.1910         1.2340       0.386890         2.1940
       3018.00        13.7650       130.2000        78.0170         1.1690         1.2220       0.392880         2.1980
       3018.50        13.7160       125.6500        79.6190         1.1070         1.1990       0.397680         2.2040
       3019.00        13.6660       124.2500        79.2180         0.9910         1.1650       0.392880         2.1880
       3019.50        13.7650       131.0000        78.4180         0.9040         1.0700       0.398470         2.1520
       3020.00        14.1120       141.6500        78.5180         0.8550         0.9630       0.404270         2.1280
       3020.50        14.5070       151.4500        79.0180         0.8020         0.8680       0.416850         2.1040
       3021.00        14.5070       162.4000        78.2180         0.7730         0.7740       0.424830         2.1200
       3021.50        14.4080       163.2000        77.4170         0.7520         0.7380       0.421640         2.1140
       3022.00        14.2100       166.9500        78.0170         0.7380         0.7450       0.407260         2.1160
       3022.50        14.2100       165.4000        81.2200         0.7380         0.7820       0.408060         2.0860
       3023.00        14.4080       157.4000        80.4190         0.7660         0.8120       0.407260         2.0720
       3023.50        14.3090       146.7000        77.3170         0.8020         0.8120       0.420840         2.1040
       3024.00        14.3090       143.5500        78.6180         0.8550         0.8430       0.433620         2.1340
       3024.50        14.2600       137.0500        83.7210         0.9040         0.8680       0.439210         2.1600
       3025.00        14.2600       139.6500        83.8210         0.9640         0.8760       0.421640         2.1610
       3025.50        14.3590       139.2500        80.0190         1.0000         0.8930       0.412050         2.1520
       3026.00        14.4080       132.8000        79.2180         1.0000         0.8600       0.399670         2.1440
       3026.50        14.4080       135.0000        80.0190         1.0000         0.7970       0.402870         2.1200
       3027.00        14.2600       136.4000        78.0170         0.9730         0.7380       0.421640         2.1160
       3027.50        14.1610       134.8500        73.2140         0.9460         0.7380       0.424830         2.1280
       3028.00        14.1120       135.0500        72.6140         0.9200         0.7310       0.438410         2.1200
       3028.50        14.1610       134.8500        72.8140         0.8950         0.7450       0.437620         2.1160
       3029.00        14.0130       134.2000        72.0130         0.8870         0.7450       0.432820         2.1280
       3029.50        13.7650       134.4500        72.8140         0.8870         0.6780       0.434420         2.1360
       3030.00        13.3700       135.2000        71.6130         0.9040         0.6340       0.436420         2.1280
       3030.50        13.0230       138.6500        70.0120         0.9290         0.6460       0.429630         2.1040
       3031.00        12.8250       140.3000        68.8110         0.9730         0.6910       0.426430         2.1040
       3031.50        12.6770       137.0500        68.4110         1.0090         0.8120       0.426430         2.1120
       3032.00        12.5780       132.0500        70.4120         1.0860         0.9730       0.412850         2.1130
       3032.50        12.4790       125.3500        70.8130         1.1590         1.0800       0.384890         2.1180
       3033.00        12.4300       117.6000        68.2110         1.2470         1.1990       0.362730         2.1280
       3033.50        12.3800       117.8500        65.6090         1.3550         1.2220       0.348150         2.1400
       3034.00        12.3800       119.1000        65.3090         1.4590         1.1990       0.331380         2.1560
