~Version Information Block
VERS .                 2.00:  CWLS LOG ASCII STANDARD - VERSION 2.00
WRAP .                   NO:  One line per depth step
~Well Information Block
#MNEM.UNIT        Data Type   Information
#---------- ----------------  -----------
STRT .FT            3001.00:  START DEPTH
STOP .FT            4759.50:  STOP DEPTH
STEP .FT               0.50:  STEP
NULL .              -999.25:  NULL VALUE
COMP .                     :  COMPANY
WELL .               WELL-3:  WELL
FLD  .                     :  FIELD
LOC  .                     :  LOCATION
CTRY .                     :  COUNTRY
STAT .                     :  STATE
CNTY .                     :  COUNTY
SRVC .                     :  SERVICE COMPANY
DATE .                     :  DATE
API  .                     :  API NUMBER
UWI  .                     :  UNIQUE WELL ID
~Curve Information Block
#MNEM.UNIT         API CODE   Curve Description
#---------- ----------------  -----------------
DEPTH.FT                   :  DEPTH CURVE
CALI .IN                   :  
DT   .US/F                 :  
GR   .GAPI                 :  
ILD  .OHMM                 :  
MSFL .OHMM                 :  
NPHI_LS.V/V                  :  
RHOB .G/C3                 :  
~Parameter Information Block
#MNEM.UNIT            Value   Description
#---------- ----------------  -----------
PROJECT.     edit@dataset:  
SET  .                 WIRE:  
~Other Information Block
# 
~A       DEPTH           CALI             DT             GR            ILD           MSFL        NPHI_LS           RHOB 
# ...
       3805.00        13.2710       124.4000        76.0160         0.8240         0.8680       0.414450         1.9440
       3805.50        13.3700       125.0000        77.6170         0.8320         0.8760       0.410460         1.8920
       3806.00        13.4190       124.2500        79.4180         0.8390         0.8760       0.410460         1.8960
       3806.50        13.4190       125.9000        79.3180         0.8550         0.8930       0.410460         1.9280
       3807.00        13.5670       127.6500        78.7180         0.8550         0.8930       0.404070         1.9320
       3807.50        13.6170       128.4000        76.8170         0.8550         0.8600       0.401670         1.9540
       3808.00        13.5180       128.1000        76.8170         0.8630         0.8430       0.418440         1.9840
       3808.50        13.4190       126.9000        80.0190         0.8710         0.8760       0.420040         1.9600
       3809.00        13.4190       127.2500        83.8210         0.8710         0.8930       0.426430         1.9940
       3809.50        13.4680       126.2000        84.8220         0.8790         0.9270       0.439210         2.0160
       3810.00        13.4680       126.8500        86.4230         0.8790         0.9540       0.440010         2.0000
       3810.50        13.5670       126.9000        83.8210         0.8710         0.9910       0.442410         2.0080
       3811.00        13.6170       126.0500        82.0200         0.8630         0.9730       0.440810         2.0370
       3811.50        13.6660       126.5000        83.8210         0.8550         0.9540       0.421640         2.0600
       3812.00        13.7160       130.6000        84.0220         0.8630         0.9270       0.429630         2.0400
       3812.50        13.6660       130.9000        83.6210         0.8550         0.8680       0.440010         1.9930
       3813.00        13.7160       130.6500        80.8190         0.8550         0.8120       0.428030         1.9880
       3813.50        13.8150       129.2500        79.4180         0.8550         0.8040       0.425630         2.0240
       3814.00        13.7650       126.4500        78.9180         0.8710         0.8270       0.419240         2.0580
       3814.50        13.5670       125.8500        80.9190         0.9040         0.8510       0.404070         2.0970
       3815.00        13.5180       127.3000        79.2180         0.9640         0.9190       0.400870         2.0960
       3815.50        13.4190       127.2000        75.6160         1.0000         0.9540       0.401670         2.1040
       3816.00        13.3700       119.3500        74.6150         1.0090         0.9730       0.393680         2.1130
       3816.50        13.3700       110.0500        74.4150         1.0090         0.9730       0.392080         2.0960
       3817.00        13.4190       106.2000        75.3160         1.0090         1.1540       0.385690         2.1200
       3817.50        13.4680       110.7000        76.8170         1.0280         1.2580       0.386490         2.1160
       3818.00        13.6170       120.1000        78.5180         1.0670         1.2340       0.412050         2.0970
       3818.50        13.7650       135.1000        80.8190         1.0960         1.2110       0.438410         2.0020
       3819.00        13.8150       127.3000        80.5190         1.0280         0.9540       0.444410         2.0080
       3819.50        13.7160       120.0500        77.6170         0.9380         0.8430       0.425230         2.0600
       3820.00        13.6660       118.2000        74.4150         0.8870         0.8840       0.425630         2.0760
       3820.50        13.7650       117.2500        74.9150         0.8630         0.9540       0.421640         2.0800
       3821.00        13.9140       125.7500        77.6170         0.8550         0.9820       0.440810         2.0820
       3821.50        14.1610       132.0500        79.6190         0.8630         0.9630       0.456790         2.0560
       3822.00        14.1610       132.4000        83.6210         0.8390         0.8510       0.436820         2.0160
       3822.50        13.9630       129.5000        82.8210         0.8090         0.7670       0.421640         2.0240
       3823.00        13.6660       126.0000        82.4200         0.7940         0.7890       0.408060         2.0480
       3823.50        13.6170       126.4000        83.4210         0.7730         0.8350       0.388090         2.0800
       3824.00        13.6170       127.6000        87.4240         0.7800         0.9450       0.388090         2.1200
       3824.50        13.6170       127.6500        88.0240         0.7940         0.9910       0.397680         2.1360
       3825.00        13.6660       128.0500        83.7210         0.8020         1.0300       0.404860         2.1360
       3825.50        13.6170       128.1500        82.1200         0.8090         1.0300       0.413650         2.1200
       3826.00        13.5670       127.6000        83.6210         0.8240         1.0300       0.424040         2.1160
       3826.50        13.5180       128.5000        82.1200         0.8240         0.9820       0.424040         2.1120
       3827.00        13.5180       129.4000        82.5210         0.8320         0.9540       0.424040         2.1120
       3827.50        13.5670       128.9000        84.6220         0.8320         0.9540       0.424830         2.1000
       3828.00        13.5180       127.2000        84.5220         0.8320         0.9540       0.434820         2.1200
       3828.50        13.5180       126.0000        82.0200         0.8390         1.0010       0.439210         2.1480
       3829.00        13.4680       125.1000        78.0170         0.8470         1.0500       0.426830         2.1520
       3829.50        13.4190       125.6500        79.2180         0.8630         1.0600       0.418840         2.1640
       3830.00        13.3700       126.8000        80.0190         0.8710         1.0900       0.410460         2.1800
       3830.50        13.3700       125.9000        78.8180         0.8710         1.0700       0.413650         2.1490
       3831.00        13.3700       125.9000        81.4200         0.8710         1.0400       0.413650         2.1360
       3831.50        13.3700       125.1000        81.8200         0.8710         1.0300       0.391290         2.1360
       3832.00        13.3200       125.0500        83.2210         0.8630         1.0300       0.394880         2.1380
       3832.50        13.3200       125.2000        86.0230         0.8630         1.0300       0.412050         2.1280
       3833.00        13.3700       125.4000        88.5250         0.8550         1.0300       0.420040         2.1280
       3833.50        13.4190       128.0500        87.8240         0.8550         1.0300       0.428030         2.1400
       3834.00        13.5180       129.4000        86.0230         0.8630         1.0010       0.418440         2.1480
       3834.50        13.5180       130.8000        84.2220         0.8630         0.9730       0.402470         2.1320
       3835.00        13.5180       130.4000        86.4230         0.8630         0.9540       0.389690         2.1160
       3835.50        13.5670       130.8000        88.5250         0.8470         0.9540       0.388890         2.1000
       3836.00        13.6660       127.6000        88.5250         0.8320         0.9540       0.395280         2.0960
       3836.50        13.6170       125.1000        85.3220         0.7940         0.9910       0.408060         2.1000
       3837.00        13.6170       123.0000        80.4190         0.7520         1.0300       0.407260         2.0480
       3837.50        13.6660       123.7000        76.8170         0.7240         0.9910       0.428430         1.9720
       3838.00        13.8150       128.3500        74.7150         0.6920         0.9190       0.451990         1.8920
