~Version Information Block
VERS .                 2.00:  CWLS LOG ASCII STANDARD - VERSION 2.00
WRAP .                   NO:  One line per depth step
~Well Information Block
#MNEM.UNIT        Data Type   Information
#---------- ----------------  -----------
STRT .FT            3001.00:  START DEPTH
STOP .FT            4759.50:  STOP DEPTH
STEP .FT               0.50:  STEP
NULL .              -999.25:  NULL VALUE
COMP .                     :  COMPANY
WELL .               WELL-3:  WELL
FLD  .                     :  FIELD
LOC  .                     :  LOCATION
CTRY .                     :  COUNTRY
STAT .                     :  STATE
CNTY .                     :  COUNTY
SRVC .                     :  SERVICE COMPANY
DATE .                     :  DATE
API  .                     :  API NUMBER
UWI  .                     :  UNIQUE WELL ID
~Curve Information Block
#MNEM.UNIT         API CODE   Curve Description
#---------- ----------------  -----------------
DEPTH.FT                   :  DEPTH CURVE
CALI .IN                   :  
DT   .US/F                 :  
GR   .GAPI                 :  
ILD  .OHMM                 :  
MSFL .OHMM                 :  
NPHI_LS.V/V                  :  
RHOB .G/C3                 :  
~Parameter Information Block
#MNEM.UNIT            Value   Description
#---------- ----------------  -----------
PROJECT.     edit@dataset:  
SET  .                 WIRE:  
~Other Information Block
# 
~A       DEPTH           CALI             DT             GR            ILD           MSFL        NPHI_LS           RHOB 
# ...
       3704.50        11.7370       106.3000        76.2160         1.2470         1.0400       0.329180         2.2120
       3705.00        11.6880       106.2000        77.0170         1.2360         1.0500       0.319790         2.2020
       3705.50        11.6880       106.2000        74.8150         1.2360         1.0300       0.308210         2.2080
       3706.00        11.6880       106.2000        71.0130         1.2360         1.0300       0.300620         2.2020
       3706.50        11.7370       106.4000        71.2130         1.2360         1.0400       0.306810         2.2040
       3707.00        11.7870       106.8000        70.5120         1.2360         1.0700       0.308610         2.2040
       3707.50        11.8360       106.3000        71.6130         1.2590         1.1540       0.310610         2.2020
       3708.00        11.8360       106.9000        73.0140         1.2590         1.1990       0.309810         2.1960
       3708.50        11.8860       106.6500        72.0130         1.2590         1.2220       0.310610         2.2100
       3709.00        11.8860       106.8500        69.2120         1.2590         1.2460       0.306610         2.2260
       3709.50        11.8860       107.2000        67.7110         1.2710         1.2700       0.305020         2.2240
       3710.00        11.8860       106.9500        68.1110         1.2710         1.2940       0.316200         2.2080
       3710.50        11.8360       107.3000        72.9140         1.2710         1.2940       0.326180         2.2080
       3711.00        11.7870       107.2000        76.8170         1.2820         1.2580       0.327380         2.2040
       3711.50        11.7870       107.6500        76.0160         1.2820         1.2110       0.331380         2.2100
       3712.00        11.7870       107.4500        74.2150         1.2820         1.1540       0.328580         2.2240
       3712.50        11.7870       107.3000        69.4120         1.2820         1.1010       0.330580         2.2400
       3713.00        11.8360       107.6000        68.8110         1.2820         1.1110       0.315400         2.2480
       3713.50        11.8860       107.8500        68.4110         1.2820         1.1760       0.302620         2.2480
       3714.00        11.9350       108.0500        69.2120         1.2940         1.2940       0.300620         2.2560
       3714.50        11.9840       108.3000        71.4130         1.2940         1.3190       0.305020         2.2440
       3715.00        12.0340       108.5000        72.6140         1.3060         1.2940       0.302620         2.2400
       3715.50        12.0830       108.4000        72.6140         1.3300         1.2110       0.305020         2.2400
       3716.00        12.1330       108.4500        76.8170         1.3800         1.1110       0.313400         2.2400
       3716.50        12.2320       109.1000        80.5190         1.4450         1.0800       0.313800         2.2560
       3717.00        12.3310       107.6500        81.6200         1.5140         1.1650       0.297830         2.2720
       3717.50        12.3800       102.6500        78.0170         1.5990         1.2700       0.285050         2.2960
       3718.00        12.4790        97.3000        75.6160         1.6750         1.4230       0.278660         2.3280
       3718.50        12.5290        92.0500        72.2140         1.7220         1.7540       0.273060         2.3400
       3719.00        12.5780        90.2000        70.9130         1.7860         2.1220       0.266670         2.3480
       3719.50        12.4790        92.2500        71.8130         1.8030         2.3780       0.267070         2.3240
       3720.00        12.3800        96.9500        75.4160         1.7860         2.2470       0.279450         2.2640
       3720.50        12.3310       100.9000        74.8150         1.7060         1.8930       0.298630         2.2240
       3721.00        12.2320       104.0000        72.0130         1.5990         1.5360       0.297230         2.1880
       3721.50        12.1820       105.2000        69.4120         1.5140         1.3440       0.301020         2.1920
       3722.00        12.1330       105.1000        71.0130         1.4450         1.2700       0.317000         2.2240
       3722.50        12.1330       105.2000        71.3130         1.3800         1.2340       0.320990         2.2320
       3723.00        12.0830       105.3500        70.0120         1.3430         1.1650       0.323390         2.2080
       3723.50        12.0830       105.6500        71.3130         1.3060         1.0800       0.327380         2.1980
       3724.00        12.0830       106.0000        71.7130         1.2820         1.0300       0.331380         2.2080
       3724.50        12.1330       105.8500        71.3130         1.2820         1.0010       0.338170         2.2240
       3725.00        12.1330       105.8500        72.6140         1.2820         0.9910       0.336370         2.2160
       3725.50        12.0830       105.7000        72.8140         1.2820         0.9910       0.320990         2.2130
       3726.00        12.0830       105.3000        72.0130         1.2820         1.0010       0.297030         2.2160
       3726.50        12.0830       105.1000        70.4120         1.2820         1.0100       0.295430         2.2180
       3727.00        12.0830       105.3000        70.4120         1.2820         1.0300       0.303820         2.2100
       3727.50        12.0830       105.1000        68.9110         1.2590         1.0500       0.310010         2.2180
       3728.00        12.0830       105.3500        64.8090         1.2590         1.0700       0.302220         2.2260
       3728.50        12.0830       105.4000        63.6080         1.2470         1.0700       0.305810         2.2160
       3729.00        12.1330       105.6000        63.4080         1.2590         1.0600       0.318600         2.1800
       3729.50        12.1330       105.2000        64.0080         1.2470         1.0500       0.330780         2.1800
       3730.00        12.1820       105.2000        63.2070         1.2360         1.0400       0.340960         2.1840
       3730.50        12.1820       104.7000        62.4070         1.2360         1.0500       0.328580         2.1800
       3731.00        12.1820       104.8500        63.6080         1.2250         1.0700       0.316400         2.1760
       3731.50        12.1820       104.8500        65.2090         1.2360         1.0800       0.319390         2.1760
       3732.00        12.1820       105.0500        66.4100         1.2360         1.1540       0.318000         2.1820
       3732.50        12.1820       104.9500        67.7110         1.2470         1.2110       0.321790         2.1920
       3733.00        12.1820       105.2000        67.6100         1.2470         1.2580       0.320990         2.1920
       3733.50        12.1820       105.1000        66.5100         1.2470         1.3060       0.320990         2.1920
       3734.00        12.2810       104.8000        66.8100         1.2470         1.3570       0.324190         2.1840
       3734.50        12.3310       105.1000        66.9100         1.2360         1.3960       0.324190         2.1840
       3735.00        12.3800       105.6500        66.2090         1.2470         1.4230       0.333770         2.1860
       3735.50        12.3800       105.7500        68.1110         1.2590         1.4100       0.340160         2.2120
       3736.00        12.3800       106.4000        68.6110         1.2590         1.3570       0.342160         2.2280
       3736.50        12.3800       106.6000        70.4120         1.2590         1.3440       0.337770         2.2320
       3737.00        12.3800       106.8000        72.8140         1.2590         1.3440       0.337970         2.2400
       3737.50        12.3800       107.0500        74.5150         1.2590         1.3700       0.340160         2.2280
