~Version Information Block
VERS .                 2.00:  CWLS LOG ASCII STANDARD - VERSION 2.00
WRAP .                   NO:  One line per depth step
~Well Information Block
#MNEM.UNIT        Data Type   Information
#---------- ----------------  -----------
STRT .FT            3001.00:  START DEPTH
STOP .FT            4759.50:  STOP DEPTH
STEP .FT               0.50:  STEP
NULL .              -999.25:  NULL VALUE
COMP .                     :  COMPANY
WELL .               WELL-3:  WELL
FLD  .                     :  FIELD
LOC  .                     :  LOCATION
CTRY .                     :  COUNTRY
STAT .                     :  STATE
CNTY .                     :  COUNTY
SRVC .                     :  SERVICE COMPANY
DATE .                     :  DATE
API  .                     :  API NUMBER
UWI  .                     :  UNIQUE WELL ID
~Curve Information Block
#MNEM.UNIT         API CODE   Curve Description
#---------- ----------------  -----------------
DEPTH.FT                   :  DEPTH CURVE
CALI .IN                   :  
DT   .US/F                 :  
GR   .GAPI                 :  
ILD  .OHMM                 :  
MSFL .OHMM                 :  
NPHI_LS.V/V                  :  
RHOB .G/C3                 :  
~Parameter Information Block
#MNEM.UNIT            Value   Description
#---------- ----------------  -----------
PROJECT.     edit@dataset:  
SET  .                 WIRE:  
~Other Information Block
# 
~A       DEPTH           CALI             DT             GR            ILD           MSFL        NPHI_LS           RHOB 
# ...
       3235.50        16.4360       123.2500        66.5100         0.9730         0.7040       0.436020         1.9290
       3236.00        16.2390       123.3500        66.6100         0.9640         0.6780       0.420040         1.9120
       3236.50        16.1890       124.8000        65.8090         0.9550         0.6590       0.381700         1.9210
       3237.00        16.1890       121.1000        66.5100         0.9550         0.6340       0.365720         1.9520
       3237.50        16.1400       121.9500        68.5110         0.9380         0.6340       0.355340         1.9640
       3238.00        16.0410       122.4500        69.3120         0.9380         0.6590       0.357740         1.9760
       3238.50        15.9910       122.1000        70.4120         0.9380         0.6970       0.364930         2.0170
       3239.00        15.9420       121.7500        69.2120         0.9460         0.7040       0.355340         2.0170
       3239.50        15.8920       122.7500        66.4100         0.9380         0.6840       0.360130         2.0000
       3240.00        15.6940       122.6000        65.9090         0.9290         0.6520       0.363330         1.9880
       3240.50        15.4970       122.0000        68.5110         0.9200         0.6220       0.368920         2.0160
       3241.00        15.4470       122.5000        68.3110         0.9040         0.6220       0.372910         2.0320
       3241.50        15.2990       121.3000        69.0110         0.8950         0.6400       0.380100         2.0200
       3242.00        15.1500       124.1500        67.7110         0.8950         0.6460       0.397680         1.9880
       3242.50        14.9520       123.6500        66.4100         0.9040         0.6340       0.399270         1.9600
       3243.00        14.9520       121.9000        63.7080         0.8950         0.5930       0.415650         1.9480
       3243.50        14.8540       125.0500        65.6090         0.9040         0.5500       0.413650         1.9680
       3244.00        14.7050       125.0500        66.8100         0.9040         0.5660       0.408060         2.0100
       3244.50        14.6060       123.7500        67.6100         0.9040         0.6050       0.401270         2.0320
       3245.00        14.7050       126.8500        69.3120         0.9040         0.6710       0.383300         2.0320
       3245.50        14.7550       124.0000        70.0120         0.9040         0.7310       0.388890         2.0290
       3246.00        14.6060       121.7500        67.2100         0.9040         0.7670       0.397680         2.0180
       3246.50        14.5570       123.3000        66.6100         0.9040         0.7520       0.392080         2.0020
       3247.00        14.6060       121.3000        69.4120         0.9040         0.7310       0.368920         1.9840
       3247.50        14.5570       120.3500        69.2120         0.8870         0.7240       0.379300         1.9520
       3248.00        14.5070       124.4000        67.4100         0.8550         0.7110       0.389690         1.9400
       3248.50        14.7050       127.0000        68.0110         0.8550         0.6970       0.400870         1.9440
       3249.00        14.9520       129.6500        69.2120         0.8320         0.6780       0.402470         1.9220
       3249.50        15.1500       129.1000        67.6100         0.8240         0.6160       0.399270         1.9040
       3250.00        15.2990       130.6500        66.2090         0.8090         0.5660       0.386490         1.9440
       3250.50        15.3480       126.6500        67.2100         0.7940         0.5500       0.379300         2.0040
       3251.00        15.5460       126.5500        69.6120         0.7730         0.5290       0.388490         2.0260
       3251.50        15.7930       128.6500        69.7120         0.7660         0.5390       0.413650         2.0160
       3252.00        15.9420       124.3000        70.4120         0.7450         0.5500       0.444410         2.0320
       3252.50        16.0410       126.0000        69.6120         0.7380         0.5550       0.455190         2.0100
       3253.00        16.1400       134.0000        69.7120         0.7380         0.5880       0.451990         1.9840
       3253.50        16.2390       136.0500        70.4120         0.7240         0.6100       0.446000         1.9760
       3254.00        16.2880       136.4500        69.6120         0.7110         0.6050       0.420840         1.9940
       3254.50        16.4860       138.8500        66.9100         0.7110         0.5930       0.407260         2.0000
       3255.00        16.5350       134.2000        67.2100         0.7050         0.5600       0.430430         1.9620
       3255.50        16.5350       135.0500        70.6120         0.6980         0.5390       0.436020         1.9600
       3256.00        16.7330       137.0500        75.2160         0.6980         0.5500       0.439210         2.0000
       3256.50        16.7830       134.4500        78.8180         0.6860         0.5600       0.444410         2.0400
       3257.00        16.6840       133.4000        79.6190         0.6860         0.5660       0.443210         2.0880
       3257.50        16.4860       136.1500        75.6160         0.6980         0.5760       0.432820         2.1200
       3258.00        16.1890       136.3000        74.6150         0.7380         0.5930       0.417650         2.1240
       3258.50        15.8430       137.7500        72.9140         0.8320         0.6050       0.402470         2.1300
       3259.00        15.3980       141.1000        70.8130         0.9820         0.6280       0.379300         2.1560
       3259.50        14.7550       132.2500        68.6110         1.1910         0.6280       0.352940         2.2080
       3260.00        13.9630       116.4500        64.8090         1.4060         0.6340       0.309010         2.2520
       3260.50        13.3700        99.5500        58.1040         1.6600         0.7450       0.257490         2.3130
       3261.00        12.8750        87.6000        56.6030         1.8030         1.1990       0.245910         2.3800
       3261.50        12.5780        83.6500        57.2030         1.8530         2.1630       0.238720         2.3720
       3262.00        12.5290        91.6500        58.7040         1.8200         3.3500       0.254290         2.3200
       3262.50        12.5290       100.8500        60.8060         1.6900         3.9000       0.276660         2.2640
       3263.00        12.5780       109.8500        62.2070         1.4320         2.8770       0.301820         2.2000
       3263.50        12.6280       121.3000        61.6060         1.2130         1.7880       0.309010         2.1360
       3264.00        12.7760       124.3000        63.3080         1.0280         1.2340       0.308210         2.1460
       3264.50        12.8750       125.6500        67.3100         0.9200         0.9630       0.309410         2.1600
       3265.00        12.8750       126.4500        71.4130         0.8550         0.9270       0.314600         2.1600
       3265.50        12.8250       124.0000        73.2140         0.8320         0.9450       0.311410         2.1780
       3266.00        12.8250       122.7000        74.1150         0.8390         0.9910       0.316200         2.1780
       3266.50        12.7760       120.6000        76.0160         0.8550         1.0300       0.330980         2.1840
       3267.00        12.6770       119.8000        78.6180         0.8550         1.0700       0.348950         2.1840
       3267.50        12.7260       122.1000        80.8190         0.8550         1.0900       0.348950         2.1840
       3268.00        12.7760       129.4000        85.6230         0.8550         1.0900       0.361730         2.1760
       3268.50        12.8750       137.6500        86.4230         0.8550         1.0700       0.361730         2.1760
